<?xml version="1.0" encoding="UTF-8" standalone="yes"?>
<ciudad xmlns="http://www.um.es/ciudad">
    <id>3</id>
    <nombre>Santa Cruz de Tenerife</nombre>
    <codigoPostal>38001</codigoPostal>
    <sitios-de-interes>
        <sitioInteres>
            <nombre>Plaza Weyler</nombre>
            <descripcion>La Plaza Weyler (Plaza del General Weyler) de Santa Cruz de Tenerife (Canarias, España), debe su nombre al general español Valeriano Weyler, militar que fue Capitán General de Canarias bajo cuyo mando se construyó el Palacio de la Capitanía General de Canarias situado junto a la citada plaza. Valeriano Weyler y Nicolau (Palma de Mallorca, 17 de septiembre de 1838 – Madrid, 20 de octubre de 1930) fue un militar y político español, principalmente conocido por su cargo de capitán general de Cuba durante la Guerra de la Independencia cubana. Fue famoso por su denostada política de Reconcentración en Cuba.  Una de sus medidas sería recluir a los habitantes rurales en campos de concentración para de esta manera privar a los sublevados del apoyo del campesinado. Se calcula que se dejó morir a unos cien mil cubanos en dichos campos de concentración debido al hambre y las enfermedades. La plaza se realizó en 1893 por Vicente Armiño, promovida por el Ayuntamiento de Santa Cruz de Tenerife, por la capitanía General de Canarias y por la Constructora de Edificios Urbanos. Con una superficie de 3.600 m², esta plaza está situada en pleno centro de la ciudad, desembocando en ella la calle del Castillo, que es la calle más comercial de Santa Cruz.​ Originariamente, esta plaza fue diseñada como anteplaza del edificio neoclásico de la Capitanía General, estando además encuadrada por un muro discontinuo. Además, al principio, contaba con una pila circular, que fue trasladada cuando el Ayuntamiento adquirió la fuente central actual.</descripcion>
            <rank>61</rank>
            <direccion>
                <calle>Plaza Weyler</calle>
                <numero>2</numero>
                <localidad>Santa Cruz de Tenerife</localidad>
                <codigoPostal>38003</codigoPostal>
                <lat>28.467694444444444</lat>
                <lng>-16.25572222222222</lng>
            </direccion>
        </sitioInteres>
        <sitioInteres>
            <nombre>Templo Masónico de Santa Cruz de Tenerife</nombre>
            <descripcion>"El Templo Masónico Histórico de Santa Cruz de Tenerife es un edificio ubicado en la ciudad de Santa Cruz de Tenerife (Canarias, España), en la calle San Lucas. Fue construido según proyecto del arquitecto tinerfeño Manuel de Cámara y Cruz en el año 1900 para uso de la Logia Añaza (...)"</descripcion>
            <rank>91</rank>
            <direccion>
                <calle>Calle San Lucas</calle>
                <numero>37</numero>
                <localidad>Santa Cruz de Tenerife</localidad>
                <codigoPostal>38002</codigoPostal>
                <lat>28.468767</lat>
                <lng>-16.25276</lng>
            </direccion>
        </sitioInteres>
        <sitioInteres>
            <nombre>Palacio de la Capitanía General de Canarias</nombre>
            <descripcion>"El Palacio de la Capitanía General de Canarias es un edificio que se encuentra en la ciudad de Santa Cruz de Tenerife y es sede de la jefatura militar de las Islas Canarias (España). Además contiene el Archivo Intermedio Militar de Canarias (...)"</descripcion>
            <rank>30</rank>
            <direccion>
                <calle>Calle Jesus Y Maria</calle>
                <numero>57</numero>
                <localidad>Santa Cruz de Tenerife</localidad>
                <codigoPostal>38004</codigoPostal>
                <lat>28.467777777777776</lat>
                <lng>-16.256666666666668</lng>
            </direccion>
        </sitioInteres>
        <sitioInteres>
            <nombre>Palacete Martí Dehesa</nombre>
            <descripcion>"El palacete Martí Dehesa, es un palacete modernista ubicado en el barrio de Los Hoteles, junto a la plaza de 25 de Julio, en Santa Cruz de Tenerife (Canarias, España). Está considerado como el mejor edificio construido por el arquitecto vallisoletano Mariano Estanga y el más destacado exponente del (...)"</descripcion>
            <rank>3</rank>
            <direccion>
                <calle>Avenida Veinticinco De Julio</calle>
                <numero>8</numero>
                <localidad>Santa Cruz de Tenerife</localidad>
                <codigoPostal>38004</codigoPostal>
                <lat>28.470125</lat>
                <lng>-16.255597</lng>
            </direccion>
        </sitioInteres>
        <sitioInteres>
            <nombre>Calle del Castillo (Santa Cruz de Tenerife)</nombre>
            <descripcion>"La Calle del Castillo, situada en Santa Cruz de Tenerife (Canarias, España) es una céntrica y concurrida calle peatonal de la capital tinerfeña.  (...)"</descripcion>
            <rank>46</rank>
            <direccion>
                <calle>Calle Castillo</calle>
                <numero>52</numero>
                <localidad>Santa Cruz de Tenerife</localidad>
                <codigoPostal>38003</codigoPostal>
                <lat>28.467266</lat>
                <lng>-16.252469</lng>
            </direccion>
        </sitioInteres>
        <sitioInteres>
            <nombre>Parroquia de la Virgen del Pilar (El Toscal)</nombre>
            <descripcion>"La Parroquia de la Virgen del Pilar está situada en la confluencia de la calle del Pilar y la calle de San Lucas, en el barrio de El Toscal, en Santa Cruz de Tenerife (Islas Canarias, España). Es una de las iglesias más importantes del centro de la ciudad.  (...)"</descripcion>
            <rank>43</rank>
            <direccion>
                <calle>Calle San Lucas</calle>
                <numero>64</numero>
                <localidad>Santa Cruz de Tenerife</localidad>
                <codigoPostal>38002</codigoPostal>
                <lat>28.46918</lat>
                <lng>-16.252112</lng>
            </direccion>
        </sitioInteres>
        <sitioInteres>
            <nombre>Iglesia de San Jorge (Santa Cruz de Tenerife)</nombre>
            <descripcion>"La Iglesia de San Jorge se encuentra ubicada en el barrio de Los Hoteles, junto a la plaza de 25 de Julio y haciendo esquina con la calle Viera Clavijo, en Santa Cruz de Tenerife (Canarias, España).  (...)"</descripcion>
            <rank>45</rank>
            <direccion>
                <calle>Calle General O'Donnell</calle>
                <numero>7</numero>
                <localidad>Santa Cruz de Tenerife</localidad>
                <codigoPostal>38004</codigoPostal>
                <lat>28.4706</lat>
                <lng>-16.2552621</lng>
            </direccion>
        </sitioInteres>
        <sitioInteres>
            <nombre>Plaza de 25 de Julio</nombre>
            <descripcion>La Plaza de 25 de Julio de Santa Cruz de Tenerife (Tenerife, España) debe su nombre al 25 de julio de 1797, fecha en la que la ciudad rechazó el ataque del Almirante Nelson cuando intentó ocupar la isla. Sin embargo, es conocida popularmente como Plaza de los patos. Situada en las proximidades del Parque García Sanabria, está en el centro de la Avenida de Veinticinco de Julio y de la calle de Viera y Clavijo, y en ella confluyen también las calles General O'Donell y Costa y Grijalba. Se construyó entre 1913 y 1917, y su fuente central es idéntica a la Fuente de las Ranas del Parque de María Luisa de Sevilla. En total, la plaza tiene una superficie aproximada de 1.330 metros cuadrados. La fuente presenta las figuras de ocho ranas que rodean a la oca central. Lo más sobresaliente de la plaza, además de la fuente central, son los 20 bancos con anuncios pintados en cerámica proveniente de Triana (Sevilla) de quienes patrocinaron su construcción. Alrededor de la plaza destacan el edificio de Correos, el palacete Martí Dehesa y la actual Iglesia de San Jorge, antiguamente iglesia anglicana, cuya construcción terminó en 1897; esta iglesia tiene una planta en cruz latina, y presenta la nave y los arcos de diafragma en madera.</descripcion>
            <rank>78</rank>
            <direccion>
                <calle>Avenida Veinticinco De Julio</calle>
                <numero>5</numero>
                <localidad>Santa Cruz de Tenerife</localidad>
                <codigoPostal>38004</codigoPostal>
                <lat>28.470555555555553</lat>
                <lng>-16.255805555555554</lng>
            </direccion>
        </sitioInteres>
        <sitioInteres>
            <nombre>Parlamento de Canarias</nombre>
            <descripcion>El Parlamento de las Islas Canarias es el órgano electivo que ejerce el poder legislativo, aprueba los presupuestos de las Islas Canarias e impulsa y controla la acción del Gobierno Canario. Representa, asimismo, a los ciudadanos de las Canarias. Su sede se encuentra en Santa Cruz de Tenerife.</descripcion>
            <rank>99</rank>
            <direccion>
                <calle>Calle Teobaldo Power</calle>
                <numero>10</numero>
                <localidad>Santa Cruz de Tenerife</localidad>
                <codigoPostal>38002</codigoPostal>
                <lat>28.467499999999998</lat>
                <lng>-16.251666666666665</lng>
            </direccion>
        </sitioInteres>
        <sitioInteres>
            <nombre>Plaza del Chicharro</nombre>
            <descripcion>La plaza del Chicharro, es una pequeña plaza situada en la ciudad de Santa Cruz de Tenerife (Tenerife, Canarias, España), se encuentra cerca de la Plaza del Príncipe en pleno centro de la capital. El nombre original de la plaza del Chicharro fue Alférez Provisional, hasta que cambió de nombre tras una iniciativa vecinal, tras la colocación en el centro de la misma de la emblemática escultura alegórica al Chicharro, que le da el actual nombre a la plaza. Esta simbólica escultura de bronce fue colocada originalmente en 1979, pero en el año 2000 fue objeto de un robo y fue prácticamente destruida, por lo que en 2003 se colocó la actual que es una réplica exacta de la original. La escultura se ha convertido en el símbolo alegórico de la ciudad.</descripcion>
            <rank>16</rank>
            <direccion>
                <calle>Calle Valentin Sanz</calle>
                <numero>27</numero>
                <localidad>Santa Cruz de Tenerife</localidad>
                <codigoPostal>38002</codigoPostal>
                <lat>28.467777777777776</lat>
                <lng>-16.250833333333333</lng>
            </direccion>
        </sitioInteres>
        <sitioInteres>
            <nombre>El Chicharro</nombre>
            <descripcion>El Chicharro o escultura alegórica al Chicharro, es una escultura de bronce de un chicharro o jurel (Trachurus trachurus), que se encuentra en la ciudad de Santa Cruz de Tenerife (Canarias, España), de la cual se ha convertido en uno de sus símbolos más queridos.</descripcion>
            <rank>30</rank>
            <direccion>
                <calle>Calle Bethencourt Alfonso</calle>
                <numero>35</numero>
                <localidad>Santa Cruz de Tenerife</localidad>
                <codigoPostal>38002</codigoPostal>
                <lat>28.4676</lat>
                <lng>-16.2508</lng>
            </direccion>
        </sitioInteres>
        <sitioInteres>
            <nombre>Plaza del Príncipe (Santa Cruz de Tenerife)</nombre>
            <descripcion>"Aunque conocida comúnmente como Plaza del Príncipe, su nombre completo es Plaza del Príncipe de Asturias. Está situada en el centro de Santa Cruz de Tenerife (Canarias, España), entre las calles Villalba Hervás, Valentín Sanz, Ruiz de Padrón y José Murphy.  (...)"</descripcion>
            <rank>75</rank>
            <direccion>
                <calle>Calle Ruiz De Padron</calle>
                <numero>1</numero>
                <localidad>Santa Cruz de Tenerife</localidad>
                <codigoPostal>38002</codigoPostal>
                <lat>28.468309</lat>
                <lng>-16.250364</lng>
            </direccion>
        </sitioInteres>
        <sitioInteres>
            <nombre>Puente Galcerán</nombre>
            <descripcion>"El puente Galcerán es uno de los puentes que cruzan el barranco de Santos en la ciudad de Santa Cruz de Tenerife (Canarias, España). Las obras del puente dieron comienzo el 7 de junio de 1926, siendo alcalde de la ciudad Santiago García Sanabria y fue inaugurado el 19 de octubre de 1928, (...)"</descripcion>
            <rank>18</rank>
            <direccion>
                <calle>Puente Galceran</calle>
                <numero>17</numero>
                <localidad>Santa Cruz de Tenerife</localidad>
                <codigoPostal>38003</codigoPostal>
                <lat>28.46472222222222</lat>
                <lng>-16.25638888888889</lng>
            </direccion>
        </sitioInteres>
        <sitioInteres>
            <nombre>Santa Cruz de Tenerife</nombre>
            <descripcion>Santa Cruz de Tenerife es una ciudad y un municipio de España, capital de la provincia homónima, de la isla de Tenerife y de la comunidad autónoma de Canarias (conjuntamente con Las Palmas de Gran Canaria). Tiene una población de 207 312 habitantes a 1 de enero de 2019.​ Se encuentra en el noreste de la isla de Tenerife, unida física y urbanísticamente a la ciudad de San Cristóbal de La Laguna, estando consideradas ambas ciudades gemelas y fomando, junto a El Rosario, Tegueste, Tacoronte y El Sauzal, el Área metropolitana de Santa Cruz de Tenerife. Fundada el 3 de mayo de 1494 como real de conquista, fue entre 1833 y 1927 de iure la única capital de Canarias (siendo de este modo la única ciudad canaria que ha ostentado tal título de manera oficial),​ hasta que en 1927 un decreto establece que se comparta la capitalidad del archipiélago con Las Palmas de Gran Canaria.​​ Es sede del Parlamento de Canarias, de la Audiencia de Cuentas de Canarias y de la Capitanía General de Canarias,​ así como de la presidencia del Gobierno de Canarias, esta última alterna en períodos legislativos con Las Palmas de Gran Canaria.​ Además, la ciudad es sede de la subdelegación provincial del Gobierno de España en Canarias. Entre otras instituciones presentes en la ciudad destaca la sede de la Unesco en Canarias.​ Según el departamento de geografía de la Universidad de Loughborough, Santa Cruz de Tenerife está definida como una ciudad global.​ La ciudad es conocida por su carnaval declarado Fiesta de Interés Turístico Internacional y considerado como uno de los más famosos del mundo.​ Además destaca su variada arquitectura, destacando el Auditorio de Tenerife, que es considerado como uno de los máximos exponentes de la arquitectura contemporánea.​​</descripcion>
            <rank>100</rank>
            <direccion>
                <calle>Puente Galceran</calle>
                <numero>17</numero>
                <localidad>Santa Cruz de Tenerife</localidad>
                <codigoPostal>38003</codigoPostal>
                <lat>28.464444444444442</lat>
                <lng>-16.25638888888889</lng>
            </direccion>
        </sitioInteres>
        <sitioInteres>
            <nombre>Parque García Sanabria</nombre>
            <descripcion>"El parque municipal García Sanabria de Santa Cruz de Tenerife (Canarias, España), construido en 1926, está situado entre las calles Numancia, Méndez Núñez, Dr. José Naveiras y Rambla de Santa Cruz, y nació de la necesidad de dotar a la ciudad de una zona ajardinada amplia, combinada con fuentes y (...)"</descripcion>
            <rank>91</rank>
            <direccion>
                <calle>Rambla Santa Cruz (De)</calle>
                <numero>110</numero>
                <localidad>Santa Cruz de Tenerife</localidad>
                <codigoPostal>38004</codigoPostal>
                <lat>28.472319</lat>
                <lng>-16.25412</lng>
            </direccion>
        </sitioInteres>
        <sitioInteres>
            <nombre>Museo municipal de Bellas Artes (Santa Cruz de Tenerife)</nombre>
            <descripcion>"El Museo Municipal de Bellas Artes de Santa Cruz de Tenerife, es un museo de bellas artes sito en la ciudad de Santa Cruz de Tenerife, (Islas Canarias, España), pertenece al el Organismo Autónomo de Cultura del Ayuntamiento de Santa Cruz de Tenerife (...)"</descripcion>
            <rank>59</rank>
            <direccion>
                <calle>Calle Jose Murphy</calle>
                <numero>10</numero>
                <localidad>Santa Cruz de Tenerife</localidad>
                <codigoPostal>38002</codigoPostal>
                <lat>28.468315</lat>
                <lng>-16.249797</lng>
            </direccion>
        </sitioInteres>
        <sitioInteres>
            <nombre>Teatro Guimerá</nombre>
            <descripcion>"El teatro Guimerá es un edificio situado en la céntrica calle de Ángel Guimerá en Santa Cruz de Tenerife (Tenerife). Dedicado, entre otras funciones, a las representaciones teatrales, es, hoy en día, el teatro más antiguo de Canarias, inaugurándose en 1851 (...)"</descripcion>
            <rank>84</rank>
            <direccion>
                <calle>Plaza Isla De La Madera</calle>
                <numero>2</numero>
                <localidad>Santa Cruz de Tenerife</localidad>
                <codigoPostal>38003</codigoPostal>
                <lat>28.465914</lat>
                <lng>-16.250504</lng>
            </direccion>
        </sitioInteres>
        <sitioInteres>
            <nombre>Batalla de Santa Cruz de Tenerife</nombre>
            <descripcion>"El puerto de Santa Cruz de Tenerife, en las islas Canarias (España), sufrió a lo largo de su historia tres batallas navales, representados en su escudo en la forma de tres cabezas de león: * La batalla de 1657: durante la guerra anglo-española que enfrentó a la commonwealth inglesa dirigida por (...)"</descripcion>
            <rank>23</rank>
            <direccion>
                <calle>Calle Palma (La)</calle>
                <numero>2</numero>
                <localidad>Santa Cruz de Tenerife</localidad>
                <codigoPostal>38003</codigoPostal>
                <lat>28.466666666666665</lat>
                <lng>-16.25</lng>
            </direccion>
        </sitioInteres>
        <sitioInteres>
            <nombre>Bloqueo de Cádiz</nombre>
            <descripcion>"El bloqueo de Cádiz formó parte de un combate naval del puerto español de Cádiz por la Royal Navy. Constó del cerco y del bombardeo de la ciudad, así como un asalto anfibio contra el puerto mismo entre junio y julio de 1797 (...)"</descripcion>
            <rank>84</rank>
            <direccion>
                <calle>Calle Palma (La)</calle>
                <numero>2</numero>
                <localidad>Santa Cruz de Tenerife</localidad>
                <codigoPostal>38003</codigoPostal>
                <lat>28.466666666666665</lat>
                <lng>-16.25</lng>
            </direccion>
        </sitioInteres>
        <sitioInteres>
            <nombre>Batalla de Santa Cruz de Tenerife (1657)</nombre>
            <descripcion>"La batalla de Santa Cruz de Tenerife tuvo lugar el 30 de abril de 1657 en el contexto de la guerra anglo-española de 1655-60, en la que la república inglesa liderada por Oliver Cromwell estaba enfrentada a la España de Felipe IV por el control del comercio con las Indias (...)"</descripcion>
            <rank>94</rank>
            <direccion>
                <calle>Calle Palma (La)</calle>
                <numero>2</numero>
                <localidad>Santa Cruz de Tenerife</localidad>
                <codigoPostal>38003</codigoPostal>
                <lat>28.466666666666665</lat>
                <lng>-16.25</lng>
            </direccion>
        </sitioInteres>
        <sitioInteres>
            <nombre>Batalla de Santa Cruz de Tenerife (1797)</nombre>
            <descripcion>"La batalla de Santa Cruz de Tenerife de 1797 fue una batalla iniciada por el almirante de la Marina Británica, Horacio Nelson, contra la ciudad de Santa Cruz de Tenerife para someter al archipiélago canario al mandato de la Corona Británica (...)"</descripcion>
            <rank>97</rank>
            <direccion>
                <calle>Calle Palma (La)</calle>
                <numero>2</numero>
                <localidad>Santa Cruz de Tenerife</localidad>
                <codigoPostal>38003</codigoPostal>
                <lat>28.466666666666665</lat>
                <lng>-16.25</lng>
            </direccion>
        </sitioInteres>
        <sitioInteres>
            <nombre>Puente General Serrador</nombre>
            <descripcion>El puente General Serrador es uno de los puentes que cruzan el barranco de Santos en la ciudad de Santa Cruz de Tenerife (Canarias, España). Construido por el arquitecto  por encargo del , en la época en la que el capitán general de Canarias era Ricardo Serrador Santés, aunque su conclusión en 1943 fue con el general Francisco García Escámez al frente del cargo.​ Ricardo Serrado murió en 1942 y el Ayuntamiento santacrucero acordó que el puente que se fabricó para unir la calle del Norte con el Mercado de Nuestra Señora de África, llevara su nombre.​ En ambas entradas del puente hay dos leones de bronce que representan las victorias del general.</descripcion>
            <rank>17</rank>
            <direccion>
                <calle>Calle Afilarmonica Nifu Nifa</calle>
                <numero>45</numero>
                <localidad>Santa Cruz de Tenerife</localidad>
                <codigoPostal>38003</codigoPostal>
                <lat>28.46472222222222</lat>
                <lng>-16.251666666666665</lng>
            </direccion>
        </sitioInteres>
        <sitioInteres>
            <nombre>Iglesia de San Francisco de Asís (Santa Cruz de Tenerife)</nombre>
            <descripcion>"La Parroquia de San Francisco de Asís es un templo religioso de culto católico y sede parroquial en la ciudad de Santa Cruz de Tenerife (Canarias, España). Este templo fue en origen un convento Franciscano y es considerada desde el año 1869 como la segunda parroquia más importante de la ciudad de (...)"</descripcion>
            <rank>94</rank>
            <direccion>
                <calle>Calle Villalba Hervas</calle>
                <numero>14</numero>
                <localidad>Santa Cruz de Tenerife</localidad>
                <codigoPostal>38002</codigoPostal>
                <lat>28.467949</lat>
                <lng>-16.249466</lng>
            </direccion>
        </sitioInteres>
        <sitioInteres>
            <nombre>Plaza de toros de Santa Cruz de Tenerife</nombre>
            <descripcion>La plaza de toros de Santa Cruz de Tenerife (Tenerife, Canarias, España) fue inaugurada en el año 1893 tras la presentación del proyecto por parte de Antonio Pintor Ocete por encargo de la Sociedad La Tinerfeña. Esta plaza fue construida como consecuencia de la gran acogida que tenía el espectáculo taurino a finales del siglo XIX y para su construcción, se utilizó el recurso de arcos de herradura y almenas almohades. Asimismo, las técnicas constructivas utilizadas eran novedosas al apreciarse formas ágiles y esbeltas.</descripcion>
            <foto>http://commons.wikimedia.org/wiki/Special:FilePath/Plaza_de_Toros_01.jpg?width=300</foto>
            <rank>36</rank>
            <direccion>
                <calle>Calle Comandante Sanchez Pinto</calle>
                <numero>2</numero>
                <localidad>Santa Cruz de Tenerife</localidad>
                <codigoPostal>38006</codigoPostal>
                <lat>28.47</lat>
                <lng>-16.26</lng>
            </direccion>
        </sitioInteres>
        <sitioInteres>
            <nombre>Tenerife Espacio de las Artes</nombre>
            <descripcion>Tenerife Espacio de las Artes (TEA) es un complejo arquitectónico de aproximadamente 20.622 metros cuadrados que alberga un museo y un centro de arte contemporáneo, el Centro de Fotografía Isla de Tenerife y la Biblioteca Municipal Central. Además, el inmueble dispone de un salón de actos, un restaurante, una tienda, una plaza pública, numerosas oficinas entre los que se encuentran las unidades de patrimonio, cultura y educación del Cabildo de Tenerife. Este espacio cultural, promovido por el Cabildo de Tenerife, está localizado en la zona centro de la ciudad de Santa Cruz de Tenerife, en la isla de Tenerife (Canarias, España), en los márgenes del Barranco de Santos, entre el Mercado de Nuestra Señora de África y la Iglesia de la Concepción y justo al lado del . El inmueble ha sido diseñado por el estudio de arquitectos suizos Herzog &amp; de Meuron y dirigido por el arquitecto canario . Su diseño propicia la apertura hacia el exterior de sus espacios interiores, aportando luz y dinamismo a todo el conjunto y conectando el barrio antiguo de la ciudad con la zona moderna. Este espacio contiene una plaza pública, abierta y accesible a los visitantes, cuya función principal es la de conducir al público al interior del edificio. Asimismo dispone de una amplia escalera espiral que conecta tanto con el nivel superior como con el inferior.El acceso a TEA es posible desde distintas partes de la ciudad ya que una nueva vía pública discurre diagonalmente a través del edificio conectando la parte superior del puente Serrador con la cota inferior de la orilla del barranco de Santos. Este espacio, está actualmente dirigido por Gilberto Gonzalez como director artístico desde 2018, tras la dirección colegiada de Isidro Hernández, Yolanda Peralta Sierra y Antonio Vela de la Torre quienes sustituyeron de forma temporal a Javier González de Durana tras su marcha. El TEA tiene entre sus objetivos el de contribuir a la reflexión sobre la cultura y la sociedad contemporánea desde el arte del siglo XX y XXI.</descripcion>
            <foto>http://commons.wikimedia.org/wiki/Special:FilePath/TEA.Tenerife.jpg?width=300</foto>
            <rank>83</rank>
            <direccion>
                <calle>Calle Afilarmonica Nifu Nifa</calle>
                <numero>36</numero>
                <localidad>Santa Cruz de Tenerife</localidad>
                <codigoPostal>38003</codigoPostal>
                <lat>28.46401</lat>
                <lng>-16.25084</lng>
            </direccion>
        </sitioInteres>
        <sitioInteres>
            <nombre>Cine Víctor (Santa Cruz de Tenerife)</nombre>
            <descripcion>"El cine Víctor, construido por el arquitecto José Enrique Marrero Regalado (1897-1956), promotor de la arquitectura de los cines de la isla de Tenerife (Canarias, España), fue inaugurado el 22 de abril de 1954 con la proyección de la película musical británica, Los cuentos de Hoffman, dirigida por (...)"</descripcion>
            <rank>51</rank>
            <direccion>
                <calle>Avenida Asuncion (De La)</calle>
                <numero>6</numero>
                <localidad>Santa Cruz de Tenerife</localidad>
                <codigoPostal>38006</codigoPostal>
                <lat>28.467666666666666</lat>
                <lng>-16.261166666666668</lng>
            </direccion>
        </sitioInteres>
        <sitioInteres>
            <nombre>Plaza de Isabel II (Santa Cruz de Tenerife)</nombre>
            <descripcion>"La plaza de Isabel II, es una pequeña plaza situada al comienzo de la calle de la Marina en la ciudad de Santa Cruz de Tenerife. Popularmente ha sido conocida como Chorro de Isabel II, Chorro de Santa Isabel y por La Pila (...)"</descripcion>
            <rank>2</rank>
            <direccion>
                <calle>Calle San Vicente Ferrer</calle>
                <numero>3</numero>
                <localidad>Santa Cruz de Tenerife</localidad>
                <codigoPostal>38002</codigoPostal>
                <lat>28.469694444444443</lat>
                <lng>-16.248194444444444</lng>
            </direccion>
        </sitioInteres>
        <sitioInteres>
            <nombre>Edificio Olympo</nombre>
            <descripcion>El Edificio Olympo es un rascacielos en la ciudad de Santa Cruz de Tenerife (Islas Canarias, España). Terminado en 1975, tiene 19 plantas y se eleva a 57 metros de altura.​ Se encuentra en la Plaza de la Candelaria, no muy lejos de otros rascacielos, como las Torres de Santa Cruz y el Rascacielos de la avenida Tres de Mayo. Tiene una arquitectura innovadora y distintiva. Su uso principal es: , oficinas y centro comercial.</descripcion>
            <foto>http://commons.wikimedia.org/wiki/Special:FilePath/Olympo_01.jpg?width=300</foto>
            <rank>12</rank>
            <direccion>
                <calle>Plaza Candelaria (La)</calle>
                <numero>2</numero>
                <localidad>Santa Cruz de Tenerife</localidad>
                <codigoPostal>38003</codigoPostal>
                <lat>28.4665</lat>
                <lng>-16.2482</lng>
            </direccion>
        </sitioInteres>
        <sitioInteres>
            <nombre>Plaza de la Paz (Santa Cruz de Tenerife)</nombre>
            <descripcion>"La plaza de la Paz, emplazada en Santa Cruz de Tenerife (Tenerife, Canarias, España), es una plaza situada en la confluencia de las ramblas de Pulido y de Santa Cruz y las avenidas Islas Canarias y Asuncionistas cuyo elemento más característico es la fuente homónima que alberga en su centro.  (...)"</descripcion>
            <rank>40</rank>
            <direccion>
                <calle>Rambla Santa Cruz (De)</calle>
                <numero>1</numero>
                <localidad>Santa Cruz de Tenerife</localidad>
                <codigoPostal>38006</codigoPostal>
                <lat>28.467916666666664</lat>
                <lng>-16.26136111111111</lng>
            </direccion>
        </sitioInteres>
        <sitioInteres>
            <nombre>Triunfo de la Candelaria</nombre>
            <descripcion>El Triunfo de la Candelaria es uno de los principales monumentos escultóricos de la ciudad de Santa Cruz de Tenerife, (isla de Tenerife, Canarias, España). También conocido como Obelisco de la Candelaria, fue donado en su día por Bartolomé Montañez, como complemento de la cruz de mármol que él mismo había regalado unos años antes con el fin de completar la ornamentación de la Plaza de la Pila, llamada así porque en ella se encontraba una fuente que desde principios del siglo XVIII abastecía de agua potable a la población de Santa Cruz y a los barcos que fondeaban en su puerto, y actualmente llamada Plaza de la Candelaria. El monumento está dedicado a la Virgen de Candelaria, a quien el Archipiélago Canario tiene por patrona, y simboliza la aparición de la Virgen y la posterior conversión de los menceyes guanches. Es un monumento de estilo neoclásico, aunque la Virgen tiene trazas góticas.</descripcion>
            <rank>81</rank>
            <direccion>
                <calle>Plaza Candelaria (La)</calle>
                <numero>1</numero>
                <localidad>Santa Cruz de Tenerife</localidad>
                <codigoPostal>38003</codigoPostal>
                <lat>28.46683333333333</lat>
                <lng>-16.24802777777778</lng>
            </direccion>
        </sitioInteres>
    </sitios-de-interes>
    <parking-movilidad-reducida>
        <parking>
            <direccion>GTA ARQUITECTO MARRERO REGALADO 9</direccion>
            <longitud>-16.247574750309102</longitud>
            <latitud>28.47421890188569</latitud>
        </parking>
        <parking>
            <direccion>CALLE MENDEZ NUÑEZ 84</direccion>
            <longitud>-16.251475111812262</longitud>
            <latitud>28.472900237290844</latitud>
        </parking>
        <parking>
            <direccion>CALLE MENDEZ NUÑEZ 110</direccion>
            <longitud>-16.249638207794483</longitud>
            <latitud>28.47487921197406</latitud>
        </parking>
        <parking>
            <direccion>AVENIDA VEINTICINCO DE JULIO 43</direccion>
            <longitud>-16.255510111472194</longitud>
            <latitud>28.47384749858713</latitud>
        </parking>
        <parking>
            <direccion>CALLE SAN FERNANDO 7</direccion>
            <longitud>-16.25017548555268</longitud>
            <latitud>28.474552864959303</latitud>
        </parking>
        <parking>
            <direccion>CALLE SAN NICOLAS 2</direccion>
            <longitud>-16.250984202704398</longitud>
            <latitud>28.471266225710274</latitud>
        </parking>
        <parking>
            <direccion>CALLE EL SALUDO 29</direccion>
            <longitud>-16.249144864488013</longitud>
            <latitud>28.474951220231922</latitud>
        </parking>
        <parking>
            <direccion>GTA ARQUITECTO MARRERO REGALADO 5</direccion>
            <longitud>-16.2476844609276</longitud>
            <latitud>28.473827268248325</latitud>
        </parking>
        <parking>
            <direccion>CALLE DOCTOR JOSE NAVEIRAS 46</direccion>
            <longitud>-16.254611846732832</longitud>
            <latitud>28.475202600313626</latitud>
        </parking>
        <parking>
            <direccion>CALLE PINTOR JOSE AGUIAR 4</direccion>
            <longitud>-16.25254402544535</longitud>
            <latitud>28.475361268325905</latitud>
        </parking>
        <parking>
            <direccion>CALLE PINTOR JOSE AGUIAR 4</direccion>
            <longitud>-16.252541515848584</longitud>
            <latitud>28.475316255174967</latitud>
        </parking>
        <parking>
            <direccion>RBLA DE SANTA CRUZ 120</direccion>
            <longitud>-16.25206006076131</longitud>
            <latitud>28.47432719240219</latitud>
        </parking>
        <parking>
            <direccion>CALLE NUMANCIA 23</direccion>
            <longitud>-16.25446028646756</longitud>
            <latitud>28.471024290569908</latitud>
        </parking>
        <parking>
            <direccion>AVENIDA FRANCISCO LA ROCHE 17</direccion>
            <longitud>-16.24739153683961</longitud>
            <latitud>28.47117432091955</latitud>
        </parking>
        <parking>
            <direccion>CALLE LA ROSA 47</direccion>
            <longitud>-16.249023080227815</longitud>
            <latitud>28.472064287354367</latitud>
        </parking>
        <parking>
            <direccion>CALLE SANTIAGO 92</direccion>
            <longitud>-16.248917271019394</longitud>
            <latitud>28.473505798527405</latitud>
        </parking>
        <parking>
            <direccion>CALLE SAN MIGUEL 10</direccion>
            <longitud>-16.251104813571708</longitud>
            <latitud>28.472190429493676</latitud>
        </parking>
        <parking>
            <direccion>CALLE SAN MIGUEL 36</direccion>
            <longitud>-16.250388616690604</longitud>
            <latitud>28.473109464059043</latitud>
        </parking>
        <parking>
            <direccion>CALLE DECANO CONSULAR JESUS RAMOS GONZALEZ 2</direccion>
            <longitud>-16.302585047451807</longitud>
            <latitud>28.420857933027882</latitud>
        </parking>
        <parking>
            <direccion>CALLE DECANO CONSULAR JESUS RAMOS GONZALEZ 2</direccion>
            <longitud>-16.30226657793151</longitud>
            <latitud>28.420945298134804</latitud>
        </parking>
        <parking>
            <direccion>CALLE TENIENTE MARTIN BENCOMO 32</direccion>
            <longitud>-16.25407100674149</longitud>
            <latitud>28.47451277597294</latitud>
        </parking>
        <parking>
            <direccion>CALLE CRUZ DE LA GALLEGA S/N</direccion>
            <longitud>-16.31689716309521</longitud>
            <latitud>28.43167756515593</latitud>
        </parking>
        <parking>
            <direccion>CALLE CRUZ DE LA GALLEGA S/N</direccion>
            <longitud>-16.31689982456741</longitud>
            <latitud>28.431723636712835</latitud>
        </parking>
        <parking>
            <direccion>SENDA REINA LUISA 32</direccion>
            <longitud>-16.307325868235967</longitud>
            <latitud>28.425454047979102</latitud>
        </parking>
        <parking>
            <direccion>CALLE AHOREN 39</direccion>
            <longitud>-16.307698662965503</longitud>
            <latitud>28.4280384715478</latitud>
        </parking>
        <parking>
            <direccion>CALLE AHOREN 41</direccion>
            <longitud>-16.307686840811126</longitud>
            <latitud>28.427937126560632</latitud>
        </parking>
        <parking>
            <direccion>CALLE FAISAN 36</direccion>
            <longitud>-16.31704516022764</longitud>
            <latitud>28.442737382271773</latitud>
        </parking>
        <parking>
            <direccion>CALLE HALCON</direccion>
            <longitud>-16.31224873792361</longitud>
            <latitud>28.44254426955381</latitud>
        </parking>
        <parking>
            <direccion>AVENIDA LOS MAJUELOS 32</direccion>
            <longitud>-16.31450978280117</longitud>
            <latitud>28.441746679929484</latitud>
        </parking>
        <parking>
            <direccion>AVENIDA LOS MAJUELOS 32</direccion>
            <longitud>-16.31442479468878</longitud>
            <latitud>28.441806701213018</latitud>
        </parking>
        <parking>
            <direccion>CALLE DONIS 6</direccion>
            <longitud>-16.31814703597229</longitud>
            <latitud>28.43957916982293</latitud>
        </parking>
        <parking>
            <direccion>CALLE DONIS 2</direccion>
            <longitud>-16.317743393863555</longitud>
            <latitud>28.43943717420077</latitud>
        </parking>
        <parking>
            <direccion>CALLE CARPINTERO 13</direccion>
            <longitud>-16.315264057860734</longitud>
            <latitud>28.43938057097736</latitud>
        </parking>
        <parking>
            <direccion>CALLE PATO 2</direccion>
            <longitud>-16.311410610498566</longitud>
            <latitud>28.438599961283963</latitud>
        </parking>
        <parking>
            <direccion>CALLE RUISEÑOR 16</direccion>
            <longitud>-16.308967467733737</longitud>
            <latitud>28.434795674020375</latitud>
        </parking>
        <parking>
            <direccion>CALLE RUISEÑOR 16</direccion>
            <longitud>-16.308919304905025</longitud>
            <latitud>28.434807184335913</latitud>
        </parking>
        <parking>
            <direccion>CALLE ANADE 8</direccion>
            <longitud>-16.31442831912356</longitud>
            <latitud>28.44017621996554</latitud>
        </parking>
        <parking>
            <direccion>AVDA PRINCIPAL AÑAZA 2</direccion>
            <longitud>-16.302971608756852</longitud>
            <latitud>28.42242312352575</latitud>
        </parking>
        <parking>
            <direccion>CALLE COROMINAS 9</direccion>
            <longitud>-16.308436319131044</longitud>
            <latitud>28.436254532944496</latitud>
        </parking>
        <parking>
            <direccion>CALLE VOLCAN MAMBROQUE 1</direccion>
            <longitud>-16.311158080161942</longitud>
            <latitud>28.447835806881464</latitud>
        </parking>
        <parking>
            <direccion>CALLE DECANO CONSULAR JESUS RAMOS GONZALEZ 1</direccion>
            <longitud>-16.299663733164913</longitud>
            <latitud>28.421667394020574</latitud>
        </parking>
        <parking>
            <direccion>AVENIDA PRINCIPAL AÑAZA 3</direccion>
            <longitud>-16.30275325519991</longitud>
            <latitud>28.423197726125434</latitud>
        </parking>
        <parking>
            <direccion>CALLE NANINO DIAZ CUTILLAS 1</direccion>
            <longitud>-16.295817397681127</longitud>
            <latitud>28.42386411730082</latitud>
        </parking>
        <parking>
            <direccion>CALLE CHINAMADA 7</direccion>
            <longitud>-16.306533466837678</longitud>
            <latitud>28.42801013593677</latitud>
        </parking>
        <parking>
            <direccion>CALLE BILMA 31</direccion>
            <longitud>-16.306104285544443</longitud>
            <latitud>28.427518615230248</latitud>
        </parking>
        <parking>
            <direccion>CALLE CHOPO 18</direccion>
            <longitud>-16.306738048401442</longitud>
            <latitud>28.44035646226597</latitud>
        </parking>
        <parking>
            <direccion>CALLE CAÑAMO 19</direccion>
            <longitud>-16.30677940731031</longitud>
            <latitud>28.44202406258644</latitud>
        </parking>
        <parking>
            <direccion>CALLE CHAFIRA 65</direccion>
            <longitud>-16.288739294177187</longitud>
            <latitud>28.444161463959354</latitud>
        </parking>
        <parking>
            <direccion>CALLE CHAFIRA 36</direccion>
            <longitud>-16.288927416056236</longitud>
            <latitud>28.44456847658185</latitud>
        </parking>
        <parking>
            <direccion>CALLE CHAFIRA 36</direccion>
            <longitud>-16.288927974872294</longitud>
            <latitud>28.44456933953729</latitud>
        </parking>
        <parking>
            <direccion>CALLE EL DRAGUILLO 39</direccion>
            <longitud>-16.304027681007874</longitud>
            <latitud>28.436292388637227</latitud>
        </parking>
        <parking>
            <direccion>CALLE CURVA EL ARCO IRIS 14</direccion>
            <longitud>-16.28906809518669</longitud>
            <latitud>28.446877932284803</latitud>
        </parking>
        <parking>
            <direccion>CALLE JUAN RODRIGUEZ SANTOS 24</direccion>
            <longitud>-16.28840025627509</longitud>
            <latitud>28.449442906876712</latitud>
        </parking>
        <parking>
            <direccion>CALLE AMERICA 40</direccion>
            <longitud>-16.28927019531499</longitud>
            <latitud>28.45383816884981</latitud>
        </parking>
        <parking>
            <direccion>AVENIDA TRES DE MAYO 9</direccion>
            <longitud>-16.255780190829185</longitud>
            <latitud>28.459163034469984</latitud>
        </parking>
        <parking>
            <direccion>CTRA DEL ROSARIO 63</direccion>
            <longitud>-16.278168454568856</longitud>
            <latitud>28.453444871859805</latitud>
        </parking>
        <parking>
            <direccion>SENDA ICOR 5</direccion>
            <longitud>-16.281575675937486</longitud>
            <latitud>28.456734261535463</latitud>
        </parking>
        <parking>
            <direccion>CALLE HURTADO DE MENDOZA 15</direccion>
            <longitud>-16.287056922844886</longitud>
            <latitud>28.452204603968543</latitud>
        </parking>
        <parking>
            <direccion>CALLE CORINTO 3</direccion>
            <longitud>-16.289570223199867</longitud>
            <latitud>28.450249026569395</latitud>
        </parking>
        <parking>
            <direccion>CALLE MONTAÑA CLARA 2</direccion>
            <longitud>-16.292029458750083</longitud>
            <latitud>28.446647653223305</latitud>
        </parking>
        <parking>
            <direccion>CALLE SAN IGNACIO 3B</direccion>
            <longitud>-16.29148095841337</longitud>
            <latitud>28.44643951959004</latitud>
        </parking>
        <parking>
            <direccion>CALLE CURVA EL ARCO IRIS 6</direccion>
            <longitud>-16.288491113052796</longitud>
            <latitud>28.446791126438356</latitud>
        </parking>
        <parking>
            <direccion>CALLE JUAN DE GARAY 7</direccion>
            <longitud>-16.280034147575662</longitud>
            <latitud>28.451664448014377</latitud>
        </parking>
        <parking>
            <direccion>CALLE TABURIENTE 45</direccion>
            <longitud>-16.28329906491622</longitud>
            <latitud>28.44938464395675</latitud>
        </parking>
        <parking>
            <direccion>CALLE ELIAS BACALLADO 10</direccion>
            <longitud>-16.284198972889115</longitud>
            <latitud>28.45779276686281</latitud>
        </parking>
        <parking>
            <direccion>CALLE ELIAS BACALLADO 10</direccion>
            <longitud>-16.284196263159874</longitud>
            <latitud>28.457745342061248</latitud>
        </parking>
        <parking>
            <direccion>CALLE OLIVINA</direccion>
            <longitud>-16.28807340233753</longitud>
            <latitud>28.45344707063899</latitud>
        </parking>
        <parking>
            <direccion>CALLE TAMADAYA 3</direccion>
            <longitud>-16.27950534815234</longitud>
            <latitud>28.45755663910318</latitud>
        </parking>
        <parking>
            <direccion>CALLE GANIVET 3</direccion>
            <longitud>-16.26754577957724</longitud>
            <latitud>28.461066875901057</latitud>
        </parking>
        <parking>
            <direccion>CALLE FRAY LUIS DE LEON 6</direccion>
            <longitud>-16.288926417891293</longitud>
            <latitud>28.453278643024294</latitud>
        </parking>
        <parking>
            <direccion>CALLE JOSE MARIA PEREDA 12</direccion>
            <longitud>-16.290395325844877</longitud>
            <latitud>28.453948738564897</latitud>
        </parking>
        <parking>
            <direccion>CALLE SANTA MARIA SOLEDAD 49</direccion>
            <longitud>-16.288023227910177</longitud>
            <latitud>28.4574961720829</latitud>
        </parking>
        <parking>
            <direccion>CALLE OLIVINA 1</direccion>
            <longitud>-16.287751229136965</longitud>
            <latitud>28.453288326803538</latitud>
        </parking>
        <parking>
            <direccion>CALLE ESTANISLAO BROTONS POVEDA 7</direccion>
            <longitud>-16.28172916391347</longitud>
            <latitud>28.457419962855198</latitud>
        </parking>
        <parking>
            <direccion>AVENIDA TRES DE MAYO 79</direccion>
            <longitud>-16.259811443173824</longitud>
            <latitud>28.458211943218608</latitud>
        </parking>
        <parking>
            <direccion>CALLE ESTANISLAO BROTONS POVEDA 4</direccion>
            <longitud>-16.281876676418733</longitud>
            <latitud>28.45842975281913</latitud>
        </parking>
        <parking>
            <direccion>CALLE GUAYADEQUE 2</direccion>
            <longitud>-16.28025848894836</longitud>
            <latitud>28.456637806244974</latitud>
        </parking>
        <parking>
            <direccion>CALLE AÑAVINGO 24</direccion>
            <longitud>-16.27962482661375</longitud>
            <latitud>28.45637613993985</latitud>
        </parking>
        <parking>
            <direccion>CALLE RAMIRO DE MAEZTU 14</direccion>
            <longitud>-16.266416684083833</longitud>
            <latitud>28.457129631929572</latitud>
        </parking>
        <parking>
            <direccion>CALLE GANIVET 5</direccion>
            <longitud>-16.268325022895826</longitud>
            <latitud>28.46031937454287</latitud>
        </parking>
        <parking>
            <direccion>CALLE ALCALDE MANDILLO TEJERA 29</direccion>
            <longitud>-16.27254355235328</longitud>
            <latitud>28.46136534784568</latitud>
        </parking>
        <parking>
            <direccion>CALLE HERNAN CORTÉS</direccion>
            <longitud>-16.284414593952604</longitud>
            <latitud>28.453208656080687</latitud>
        </parking>
        <parking>
            <direccion>CALLE BARCELONA 2</direccion>
            <longitud>-16.27483424435315</longitud>
            <latitud>28.452598905478624</latitud>
        </parking>
        <parking>
            <direccion>CALLE DEL MENCEY 5</direccion>
            <longitud>-16.272928052452677</longitud>
            <latitud>28.458875324753</latitud>
        </parking>
        <parking>
            <direccion>CALLE ALCALDE MANDILLO TEJERA 9</direccion>
            <longitud>-16.270794673013445</longitud>
            <latitud>28.46054620041742</latitud>
        </parking>
        <parking>
            <direccion>CALLE ALCALDE MANDILLO TEJERA 21</direccion>
            <longitud>-16.27182017388975</longitud>
            <latitud>28.461021599465028</latitud>
        </parking>
        <parking>
            <direccion>CALLE BARTOLOME CIFRA 1</direccion>
            <longitud>-16.278040925302104</longitud>
            <latitud>28.469658360455877</latitud>
        </parking>
        <parking>
            <direccion>CALLE DOCTOR JOSE MANUEL MIRALLES 5</direccion>
            <longitud>-16.274367891524637</longitud>
            <latitud>28.454508178679323</latitud>
        </parking>
        <parking>
            <direccion>AVENIDA DE VENEZUELA 2C</direccion>
            <longitud>-16.269926281109598</longitud>
            <latitud>28.465820943973913</latitud>
        </parking>
        <parking>
            <direccion>CALLE RAFAEL AROCHA GUILLAMA 30</direccion>
            <longitud>-16.2739027959851</longitud>
            <latitud>28.46598766013027</latitud>
        </parking>
        <parking>
            <direccion>PLAZA IGLESIA CRUZ DEL SEÑOR 1A</direccion>
            <longitud>-16.271806330745278</longitud>
            <latitud>28.464805774670346</latitud>
        </parking>
        <parking>
            <direccion>CALLE RIO GENIL 5</direccion>
            <longitud>-16.279274297038317</longitud>
            <latitud>28.468930137855942</latitud>
        </parking>
        <parking>
            <direccion>CALLE LIBIA 7</direccion>
            <longitud>-16.285125457749636</longitud>
            <latitud>28.462997367764597</latitud>
        </parking>
        <parking>
            <direccion>CALLE FRANCISCO PIZARRO 10</direccion>
            <longitud>-16.277651631082215</longitud>
            <latitud>28.464952641095923</latitud>
        </parking>
        <parking>
            <direccion>CALLE BIBIANA 23</direccion>
            <longitud>-16.286057413635753</longitud>
            <latitud>28.462582963362127</latitud>
        </parking>
        <parking>
            <direccion>CALLE NIGERIA 11</direccion>
            <longitud>-16.28557813658851</longitud>
            <latitud>28.46298248872882</latitud>
        </parking>
        <parking>
            <direccion>CALLE ARABIA 33</direccion>
            <longitud>-16.28532953857434</longitud>
            <latitud>28.461954964321226</latitud>
        </parking>
        <parking>
            <direccion>CALLE FRANCISCO PIZARRO 2</direccion>
            <longitud>-16.27753698066112</longitud>
            <latitud>28.464610189532742</latitud>
        </parking>
        <parking>
            <direccion>AVENIDA BENITO PEREZ ARMAS 33</direccion>
            <longitud>-16.26803821543236</longitud>
            <latitud>28.462970245802605</latitud>
        </parking>
        <parking>
            <direccion>CALLE FERMIN MORIN 2</direccion>
            <longitud>-16.268487040470543</longitud>
            <latitud>28.46638117613593</latitud>
        </parking>
        <parking>
            <direccion>CALLE RIO BIDASOA 4</direccion>
            <longitud>-16.27609011665952</longitud>
            <latitud>28.470507249562118</latitud>
        </parking>
        <parking>
            <direccion>CALLE PEDRO PINTO DE LA ROSA 18</direccion>
            <longitud>-16.26698402781649</longitud>
            <latitud>28.469257192014854</latitud>
        </parking>
        <parking>
            <direccion>CALLE JOSE CUBILES 4</direccion>
            <longitud>-16.271546766237755</longitud>
            <latitud>28.463680275000744</latitud>
        </parking>
        <parking>
            <direccion>CALLE JOSE CUBILES 2</direccion>
            <longitud>-16.27143146783275</longitud>
            <latitud>28.463767593829953</latitud>
        </parking>
        <parking>
            <direccion>CALLE PRINCIPE RUYMAN 41</direccion>
            <longitud>-16.270960649607066</longitud>
            <latitud>28.469968072892115</latitud>
        </parking>
        <parking>
            <direccion>CALLE GRANADOS 23</direccion>
            <longitud>-16.272364980874798</longitud>
            <latitud>28.463042502698713</latitud>
        </parking>
        <parking>
            <direccion>CALLE JOSE RODRIGUEZ MOURE 8</direccion>
            <longitud>-16.273776143008885</longitud>
            <latitud>28.4666701770967</latitud>
        </parking>
        <parking>
            <direccion>CALLE PRINCIPE RUYMAN 23</direccion>
            <longitud>-16.27120803948998</longitud>
            <latitud>28.46951110782836</latitud>
        </parking>
        <parking>
            <direccion>CALLE JUAN RUMEU GARCIA 76</direccion>
            <longitud>-16.275250564575664</longitud>
            <latitud>28.465957311971753</latitud>
        </parking>
        <parking>
            <direccion>CALLE GUIA DE ISORA 1</direccion>
            <longitud>-16.274461625148824</longitud>
            <latitud>28.47062125803232</latitud>
        </parking>
        <parking>
            <direccion>CALLE PRINCESA GUACIMARA 33</direccion>
            <longitud>-16.270750148232775</longitud>
            <latitud>28.46951713349899</latitud>
        </parking>
        <parking>
            <direccion>CALLE ALCALDE MANDILLO TEJERA 35</direccion>
            <longitud>-16.27296253392129</longitud>
            <latitud>28.461682819729262</latitud>
        </parking>
        <parking>
            <direccion>CALLE AGUSTIN CABRERA DIAZ 2</direccion>
            <longitud>-16.272682043758547</longitud>
            <latitud>28.466181255730643</latitud>
        </parking>
        <parking>
            <direccion>CALLE HERO 52</direccion>
            <longitud>-16.273234721718733</longitud>
            <latitud>28.469349692914918</latitud>
        </parking>
        <parking>
            <direccion>CALLE GARCILASO DE LA VEGA 15A</direccion>
            <longitud>-16.25807674592866</longitud>
            <latitud>28.461680166524573</latitud>
        </parking>
        <parking>
            <direccion>AVENIDA JOSE MANUEL GUIMERA 10</direccion>
            <longitud>-16.25051326492447</longitud>
            <latitud>28.46114149340435</latitud>
        </parking>
        <parking>
            <direccion>CALLE DEL PERDON 2</direccion>
            <longitud>-16.260251033492853</longitud>
            <latitud>28.469299594041065</latitud>
        </parking>
        <parking>
            <direccion>CALLE JESUS Y MARIA 43</direccion>
            <longitud>-16.2568760562945</longitud>
            <latitud>28.468914593015533</latitud>
        </parking>
        <parking>
            <direccion>CALLE JUAN RUMEU GARCIA 28</direccion>
            <longitud>-16.273247272108897</longitud>
            <latitud>28.465263668644376</latitud>
        </parking>
        <parking>
            <direccion>CALLE POGGI BORSOTTO 4</direccion>
            <longitud>-16.268250735335503</longitud>
            <latitud>28.466058953131363</latitud>
        </parking>
        <parking>
            <direccion>AVENIDA DE BELGICA 50</direccion>
            <longitud>-16.26776283294666</longitud>
            <latitud>28.465353514277304</latitud>
        </parking>
        <parking>
            <direccion>CALLE SIMON BOLIVAR 22</direccion>
            <longitud>-16.271238872098333</longitud>
            <latitud>28.463223858852324</latitud>
        </parking>
        <parking>
            <direccion>CALLE ALVAREZ DE LUGO 36</direccion>
            <longitud>-16.257980385787906</longitud>
            <latitud>28.46809177598472</latitud>
        </parking>
        <parking>
            <direccion>CALLE ALVAREZ DE LUGO 41</direccion>
            <longitud>-16.257930978581676</longitud>
            <latitud>28.46793748924692</latitud>
        </parking>
        <parking>
            <direccion>CALLE ALVAREZ DE LUGO 45</direccion>
            <longitud>-16.257991582639864</longitud>
            <latitud>28.467660700139984</latitud>
        </parking>
        <parking>
            <direccion>CALLE PRINCESA DACIL 16</direccion>
            <longitud>-16.27064134875226</longitud>
            <latitud>28.468761974605904</latitud>
        </parking>
        <parking>
            <direccion>AVENIDA ANGEL ROMERO 13</direccion>
            <longitud>-16.273423118326622</longitud>
            <latitud>28.462496229861955</latitud>
        </parking>
        <parking>
            <direccion>CALLE COMODORO ROLIN 4</direccion>
            <longitud>-16.266415534137966</longitud>
            <latitud>28.464405609388542</latitud>
        </parking>
        <parking>
            <direccion>CALLE LEOCADIO MACHADO 7</direccion>
            <longitud>-16.27288599743013</longitud>
            <latitud>28.46600100225684</latitud>
        </parking>
        <parking>
            <direccion>CALLE LOS MOLINOS 44</direccion>
            <longitud>-16.255210503747744</longitud>
            <latitud>28.460978038555</latitud>
        </parking>
        <parking>
            <direccion>CALLE GUANCHE ZEBENZUI 40</direccion>
            <longitud>-16.26917397102092</longitud>
            <latitud>28.468603091381816</latitud>
        </parking>
        <parking>
            <direccion>PLAZA DE LA VICTORIA 11</direccion>
            <longitud>-16.259642443333544</longitud>
            <latitud>28.458472190587635</latitud>
        </parking>
        <parking>
            <direccion>CALLE HELIODORO RODRIGUEZ LOPEZ 7</direccion>
            <longitud>-16.26217345861754</longitud>
            <latitud>28.461216400990466</latitud>
        </parking>
        <parking>
            <direccion>CALLE HELIODORO RODRIGUEZ LOPEZ 7</direccion>
            <longitud>-16.262184692153745</longitud>
            <latitud>28.461172062854164</latitud>
        </parking>
        <parking>
            <direccion>CALLE TOME CANO 5</direccion>
            <longitud>-16.26211381265175</longitud>
            <latitud>28.45945572657013</latitud>
        </parking>
        <parking>
            <direccion>CALLE GONGORA 2</direccion>
            <longitud>-16.258642653515544</longitud>
            <latitud>28.460029067876825</latitud>
        </parking>
        <parking>
            <direccion>AVENIDA BENITO PEREZ ARMAS 1</direccion>
            <longitud>-16.26399151367972</longitud>
            <latitud>28.458799891434793</latitud>
        </parking>
        <parking>
            <direccion>AVENIDA BENITO PEREZ ARMAS 1</direccion>
            <longitud>-16.263957014259994</longitud>
            <latitud>28.458764656100723</latitud>
        </parking>
        <parking>
            <direccion>CALLE AZORIN 11</direccion>
            <longitud>-16.266297497983572</longitud>
            <latitud>28.458158543358163</latitud>
        </parking>
        <parking>
            <direccion>CALLE NUÑEZ DE BALBOA 19</direccion>
            <longitud>-16.25953730803225</longitud>
            <latitud>28.45915629819836</latitud>
        </parking>
        <parking>
            <direccion>CALLE NUÑEZ DE BALBOA 3</direccion>
            <longitud>-16.259451010444515</longitud>
            <latitud>28.459356006430184</latitud>
        </parking>
        <parking>
            <direccion>CALLE LEPANTO 2</direccion>
            <longitud>-16.257918672048053</longitud>
            <latitud>28.459592037222276</latitud>
        </parking>
        <parking>
            <direccion>AVENIDA BENITO PEREZ ARMAS 2</direccion>
            <longitud>-16.26304381463162</longitud>
            <latitud>28.45818289572087</latitud>
        </parking>
        <parking>
            <direccion>CALLE LEGAZPI 6</direccion>
            <longitud>-16.261564010585683</longitud>
            <latitud>28.459579156207678</latitud>
        </parking>
        <parking>
            <direccion>CALLE FRAGATA DANMARK 6</direccion>
            <longitud>-16.263042886735388</longitud>
            <latitud>28.458771729768447</latitud>
        </parking>
        <parking>
            <direccion>CALLE QUEVEDO 5</direccion>
            <longitud>-16.257744692169293</longitud>
            <latitud>28.461533384328174</latitud>
        </parking>
        <parking>
            <direccion>CALLE GARCILASO DE LA VEGA 25</direccion>
            <longitud>-16.257677479232413</longitud>
            <latitud>28.45985684975023</latitud>
        </parking>
        <parking>
            <direccion>CALLE VALLE INCLAN 12</direccion>
            <longitud>-16.26615967340845</longitud>
            <latitud>28.4592512838765</latitud>
        </parking>
        <parking>
            <direccion>CALLE VALLE INCLAN 5</direccion>
            <longitud>-16.265633116682267</longitud>
            <latitud>28.45946624484544</latitud>
        </parking>
        <parking>
            <direccion>CALLE LEONCIO RODRIGUEZ 7</direccion>
            <longitud>-16.25161010040432</longitud>
            <latitud>28.46148495073015</latitud>
        </parking>
        <parking>
            <direccion>CALLE ALVAREZ DE LUGO 58</direccion>
            <longitud>-16.25836250932895</longitud>
            <latitud>28.46575778051225</latitud>
        </parking>
        <parking>
            <direccion>CALLE HELIODORO RODRIGUEZ GONZALEZ 14</direccion>
            <longitud>-16.262179913843493</longitud>
            <latitud>28.463902135228306</latitud>
        </parking>
        <parking>
            <direccion>CALLE RAMON Y CAJAL 15</direccion>
            <longitud>-16.257698884538403</longitud>
            <latitud>28.466209497087434</latitud>
        </parking>
        <parking>
            <direccion>CALLE RAMON Y CAJAL 19</direccion>
            <longitud>-16.25779754588532</longitud>
            <latitud>28.466123635028385</latitud>
        </parking>
        <parking>
            <direccion>CALLE DE LOS SUEÑOS 63</direccion>
            <longitud>-16.263063624512203</longitud>
            <latitud>28.470111947415422</latitud>
        </parking>
        <parking>
            <direccion>CALLE EMILIO LOPEZ 28</direccion>
            <longitud>-16.253107489727945</longitud>
            <latitud>28.460599032852027</latitud>
        </parking>
        <parking>
            <direccion>AVENIDA BUENOS AIRES 55</direccion>
            <longitud>-16.254544758666693</longitud>
            <latitud>28.460802864310207</latitud>
        </parking>
        <parking>
            <direccion>CALLE BENAVIDES 11</direccion>
            <longitud>-16.258963443007875</longitud>
            <latitud>28.4696008105314</latitud>
        </parking>
        <parking>
            <direccion>CALLE GARCILASO DE LA VEGA 10</direccion>
            <longitud>-16.258323916768934</longitud>
            <latitud>28.462571574372586</latitud>
        </parking>
        <parking>
            <direccion>CALLE CASTRO 33</direccion>
            <longitud>-16.26057860496549</longitud>
            <latitud>28.4654567436364</latitud>
        </parking>
        <parking>
            <direccion>CALLE GILBERTO CAYOL LOPEZ 6</direccion>
            <longitud>-16.263116144117262</longitud>
            <latitud>28.46229107659116</latitud>
        </parking>
        <parking>
            <direccion>CALLE ANTONIO DE NEBRIJA 11</direccion>
            <longitud>-16.257525308508153</longitud>
            <latitud>28.462627755378705</latitud>
        </parking>
        <parking>
            <direccion>PLAZA LOS SABANDEÑOS</direccion>
            <longitud>-16.26216594000879</longitud>
            <latitud>28.461862559131127</latitud>
        </parking>
        <parking>
            <direccion>CALLE COMANDANTE SANCHEZ PINTO 15</direccion>
            <longitud>-16.260951897546324</longitud>
            <latitud>28.470062473421773</latitud>
        </parking>
        <parking>
            <direccion>CALLE BERNARDINO SEMAN 20</direccion>
            <longitud>-16.262819905054073</longitud>
            <latitud>28.463281007265586</latitud>
        </parking>
        <parking>
            <direccion>CALLE LA MUTINE 1</direccion>
            <longitud>-16.261289332826973</longitud>
            <latitud>28.462827996535168</latitud>
        </parking>
        <parking>
            <direccion>CALLE LA MUTINE 1</direccion>
            <longitud>-16.26118619660196</longitud>
            <latitud>28.462802017209647</latitud>
        </parking>
        <parking>
            <direccion>CALLE FERNANDO PRIMO DE RIVERA 89</direccion>
            <longitud>-16.2647564492577</longitud>
            <latitud>28.4698763093118</latitud>
        </parking>
        <parking>
            <direccion>CALLE PORLIER 21</direccion>
            <longitud>-16.25806394247724</longitud>
            <latitud>28.467016360336096</latitud>
        </parking>
        <parking>
            <direccion>CALLE GENERAL SERRANO 75</direccion>
            <longitud>-16.261061097238148</longitud>
            <latitud>28.466795237158962</latitud>
        </parking>
        <parking>
            <direccion>CALLE PORLIER 87</direccion>
            <longitud>-16.260996366271115</longitud>
            <latitud>28.467274531608087</latitud>
        </parking>
        <parking>
            <direccion>CALLE PORLIER 45</direccion>
            <longitud>-16.259349098137175</longitud>
            <latitud>28.46712908408132</latitud>
        </parking>
        <parking>
            <direccion>CALLE PORLIER 53</direccion>
            <longitud>-16.259746015257374</longitud>
            <latitud>28.467162894681582</latitud>
        </parking>
        <parking>
            <direccion>CALLE GENERAL SERRANO 6</direccion>
            <longitud>-16.256500781490296</longitud>
            <latitud>28.466413890531133</latitud>
        </parking>
        <parking>
            <direccion>CALLE RAMON Y CAJAL 49</direccion>
            <longitud>-16.26096636825874</longitud>
            <latitud>28.466401862634076</latitud>
        </parking>
        <parking>
            <direccion>CALLE RAMON Y CAJAL 49</direccion>
            <longitud>-16.261017137005364</longitud>
            <latitud>28.466406262986652</latitud>
        </parking>
        <parking>
            <direccion>CALLE ANSELMO J BENITEZ 2</direccion>
            <longitud>-16.259678783238765</longitud>
            <latitud>28.46779333353421</latitud>
        </parking>
        <parking>
            <direccion>CALLE ANSELMO J BENITEZ 2</direccion>
            <longitud>-16.259679117466064</longitud>
            <latitud>28.467796367512907</latitud>
        </parking>
        <parking>
            <direccion>CALLE CASTRO 16</direccion>
            <longitud>-16.260336601567978</longitud>
            <latitud>28.46811947520688</latitud>
        </parking>
        <parking>
            <direccion>CALLE BENAVIDES 65</direccion>
            <longitud>-16.25932024468197</longitud>
            <latitud>28.466539918625553</latitud>
        </parking>
        <parking>
            <direccion>CALLE BENAVIDES 49</direccion>
            <longitud>-16.259225030924746</longitud>
            <latitud>28.467398014377263</latitud>
        </parking>
        <parking>
            <direccion>CALLE SAN CRISTOBAL 16</direccion>
            <longitud>-16.264057605226412</longitud>
            <latitud>28.468739111657634</latitud>
        </parking>
        <parking>
            <direccion>CALLE ALVAREZ DE LUGO 30</direccion>
            <longitud>-16.2579037345434</longitud>
            <latitud>28.468453060253264</latitud>
        </parking>
        <parking>
            <direccion>CALLE SANTIAGO CUADRADO 9</direccion>
            <longitud>-16.26230153586759</longitud>
            <latitud>28.469404591032994</latitud>
        </parking>
        <parking>
            <direccion>CALLE CALVO SOTELO 98</direccion>
            <longitud>-16.264194596274645</longitud>
            <latitud>28.47011346169465</latitud>
        </parking>
        <parking>
            <direccion>CALLE LUIS DE LA CRUZ 8</direccion>
            <longitud>-16.26365388495791</longitud>
            <latitud>28.46558648183121</latitud>
        </parking>
        <parking>
            <direccion>CALLE VELAZQUEZ 8</direccion>
            <longitud>-16.26307033583494</longitud>
            <latitud>28.46525466076428</latitud>
        </parking>
        <parking>
            <direccion>CALLE VELAZQUEZ 1</direccion>
            <longitud>-16.26296993094887</longitud>
            <latitud>28.465875953010748</latitud>
        </parking>
        <parking>
            <direccion>AVENIDA DE BELGICA 14</direccion>
            <longitud>-16.264330375985942</longitud>
            <latitud>28.464718694397995</latitud>
        </parking>
        <parking>
            <direccion>CALLE ZURBARAN 26</direccion>
            <longitud>-16.266169821166038</longitud>
            <latitud>28.466247622040992</latitud>
        </parking>
        <parking>
            <direccion>CALLE PROGRESO 12</direccion>
            <longitud>-16.25757272756547</longitud>
            <latitud>28.46578250714763</latitud>
        </parking>
        <parking>
            <direccion>CALLE PROGRESO 34</direccion>
            <longitud>-16.25860027708438</longitud>
            <latitud>28.465871569707858</latitud>
        </parking>
        <parking>
            <direccion>CALLE RAMON Y CAJAL 29</direccion>
            <longitud>-16.258557647548148</longitud>
            <latitud>28.46618846538863</latitud>
        </parking>
        <parking>
            <direccion>CALLE RAMON Y CAJAL 9</direccion>
            <longitud>-16.257304811876537</longitud>
            <latitud>28.466080265542995</latitud>
        </parking>
        <parking>
            <direccion>CALLE LOPE DE VEGA 35</direccion>
            <longitud>-16.258762579072634</longitud>
            <latitud>28.462711971257697</latitud>
        </parking>
        <parking>
            <direccion>CALLE HERMANOS LOGMAN 3</direccion>
            <longitud>-16.254604970321076</longitud>
            <latitud>28.463099580698056</latitud>
        </parking>
        <parking>
            <direccion>CALLE TAJINASTE (BARRIO NUEVO) 22</direccion>
            <longitud>-16.269206673938697</longitud>
            <latitud>28.472723232282753</latitud>
        </parking>
        <parking>
            <direccion>CALLE RAMON Y CAJAL 3A</direccion>
            <longitud>-16.255637839714506</longitud>
            <latitud>28.465856289358626</latitud>
        </parking>
        <parking>
            <direccion>CALLE RAMON Y CAJAL 3A</direccion>
            <longitud>-16.255538139810827</longitud>
            <latitud>28.465836630723256</latitud>
        </parking>
        <parking>
            <direccion>CALLE PI Y MARGALL 11</direccion>
            <longitud>-16.253832835815377</longitud>
            <latitud>28.46823259483255</latitud>
        </parking>
        <parking>
            <direccion>CALLE PI Y MARGALL 13</direccion>
            <longitud>-16.25387162943441</longitud>
            <latitud>28.46826276139415</latitud>
        </parking>
        <parking>
            <direccion>CALLE VILLALBA HERVAS 9</direccion>
            <longitud>-16.249278923957828</longitud>
            <latitud>28.467806437588745</latitud>
        </parking>
        <parking>
            <direccion>CALLE VILLALBA HERVAS 17</direccion>
            <longitud>-16.249884641610763</longitud>
            <latitud>28.467881298597668</latitud>
        </parking>
        <parking>
            <direccion>CALLE SAN FRANCISCO 45</direccion>
            <longitud>-16.248555575403703</longitud>
            <latitud>28.469878993676335</latitud>
        </parking>
        <parking>
            <direccion>CALLE IMELDO SERIS 49</direccion>
            <longitud>-16.252461953098607</longitud>
            <latitud>28.466896199129707</latitud>
        </parking>
        <parking>
            <direccion>CALLE PI Y MARGALL 25</direccion>
            <longitud>-16.254858665509357</longitud>
            <latitud>28.469045671613962</latitud>
        </parking>
        <parking>
            <direccion>CALLE ROBAYNA 14</direccion>
            <longitud>-16.255555905561337</longitud>
            <latitud>28.46877187717396</latitud>
        </parking>
        <parking>
            <direccion>AVENIDA MARITIMA 4</direccion>
            <longitud>-16.247634547012282</longitud>
            <latitud>28.46446069376878</latitud>
        </parking>
        <parking>
            <direccion>CALLE SANTIAGO 6</direccion>
            <longitud>-16.250621734647503</longitud>
            <latitud>28.470608708321492</latitud>
        </parking>
        <parking>
            <direccion>CALLE PADRE ANCHIETA 2</direccion>
            <longitud>-16.253281569433963</longitud>
            <latitud>28.463760432757145</latitud>
        </parking>
        <parking>
            <direccion>CALLE GENERAL GUTIERREZ 3</direccion>
            <longitud>-16.248005391683098</longitud>
            <latitud>28.465825274047607</latitud>
        </parking>
        <parking>
            <direccion>CALLE GENERAL GUTIERREZ 3</direccion>
            <longitud>-16.247983708913264</longitud>
            <latitud>28.465866872094004</latitud>
        </parking>
        <parking>
            <direccion>PLAZA DE ESPAÑA 2</direccion>
            <longitud>-16.247371326790415</longitud>
            <latitud>28.466204524563434</latitud>
        </parking>
        <parking>
            <direccion>CALLE LA X 3</direccion>
            <longitud>-16.255465787268097</longitud>
            <latitud>28.46691908489654</latitud>
        </parking>
        <parking>
            <direccion>CALLE DOCTOR MIGUEL LOPEZ GONZALEZ 1</direccion>
            <longitud>-16.25378077444679</longitud>
            <latitud>28.466164617744155</latitud>
        </parking>
        <parking>
            <direccion>AVENIDA BRAVO MURILLO 2</direccion>
            <longitud>-16.24739286181626</longitud>
            <latitud>28.466163974021036</latitud>
        </parking>
        <parking>
            <direccion>CALLE PADRE ANCHIETA 45</direccion>
            <longitud>-16.256395942256436</longitud>
            <latitud>28.463880807268986</latitud>
        </parking>
        <parking>
            <direccion>CALLE HERMANOS LOGMAN 8</direccion>
            <longitud>-16.254535135331786</longitud>
            <latitud>28.46300975414587</latitud>
        </parking>
        <parking>
            <direccion>AVENIDA BRAVO MURILLO 4</direccion>
            <longitud>-16.249181691787975</longitud>
            <latitud>28.463006752747066</latitud>
        </parking>
        <parking>
            <direccion>AVENIDA BRAVO MURILLO 4</direccion>
            <longitud>-16.24920263666022</longitud>
            <latitud>28.462966327388653</latitud>
        </parking>
        <parking>
            <direccion>CALLE SABINO BERTHELOT 47</direccion>
            <longitud>-16.253254640781076</longitud>
            <latitud>28.469491768859083</latitud>
        </parking>
        <parking>
            <direccion>CALLE PEDRO BERNARDO FORSTALL 61</direccion>
            <longitud>-16.27711214781782</longitud>
            <latitud>28.474063620353352</latitud>
        </parking>
        <parking>
            <direccion>CALLE EMILIO CALZADILLA 22</direccion>
            <longitud>-16.24929303965217</longitud>
            <latitud>28.468981450570716</latitud>
        </parking>
        <parking>
            <direccion>CALLE EMILIO CALZADILLA 22</direccion>
            <longitud>-16.249242242330773</longitud>
            <latitud>28.468971830283813</latitud>
        </parking>
        <parking>
            <direccion>AVENIDA SAN SEBASTIAN 94</direccion>
            <longitud>-16.255366108837578</longitud>
            <latitud>28.463657498914035</latitud>
        </parking>
        <parking>
            <direccion>AVENIDA SAN SEBASTIAN 92</direccion>
            <longitud>-16.255264361967455</longitud>
            <latitud>28.463661840558576</latitud>
        </parking>
        <parking>
            <direccion>AVENIDA SAN SEBASTIAN 90</direccion>
            <longitud>-16.255045314412033</longitud>
            <latitud>28.463670444207946</latitud>
        </parking>
        <parking>
            <direccion>CALLE LOS MOLINOS 12</direccion>
            <longitud>-16.254947313327893</longitud>
            <latitud>28.463030983216022</latitud>
        </parking>
        <parking>
            <direccion>CALLE FERNANDEZ HERRERO 4</direccion>
            <longitud>-16.25376832876542</longitud>
            <latitud>28.463449898499952</latitud>
        </parking>
        <parking>
            <direccion>CALLE CARMEN MONTEVERDE 40</direccion>
            <longitud>-16.254512035887025</longitud>
            <latitud>28.46651447377225</latitud>
        </parking>
        <parking>
            <direccion>CALLE LA ESTRELLA 2</direccion>
            <longitud>-16.287629399672362</longitud>
            <latitud>28.44850613755965</latitud>
        </parking>
        <parking>
            <direccion>RBLA BENTACAYSE 2</direccion>
            <longitud>-16.30023971508336</longitud>
            <latitud>28.424280531091423</latitud>
        </parking>
        <parking>
            <direccion>CALLE VILLALBA HERVAS 4</direccion>
            <longitud>-16.2482603987227</longitud>
            <latitud>28.467812020469193</latitud>
        </parking>
        <parking>
            <direccion>CALLE PI Y MARGALL 28</direccion>
            <longitud>-16.25459080041628</longitud>
            <latitud>28.468924629090548</latitud>
        </parking>
        <parking>
            <direccion>CALLE PUERTO ESCONDIDO 5</direccion>
            <longitud>-16.251291768710363</longitud>
            <latitud>28.46947276436046</latitud>
        </parking>
        <parking>
            <direccion>CALLE LA OROTAVA 80</direccion>
            <longitud>-16.274496599875626</longitud>
            <latitud>28.473117651515796</latitud>
        </parking>
        <parking>
            <direccion>CALLE RIO SEGURA 9</direccion>
            <longitud>-16.278064638931145</longitud>
            <latitud>28.47129842148562</latitud>
        </parking>
        <parking>
            <direccion>CALLE ENRIQUE DE ANAGA 10</direccion>
            <longitud>-16.269910548424388</longitud>
            <latitud>28.471033898150722</latitud>
        </parking>
        <parking>
            <direccion>CALLE JOSE FONSPERTIUS 25</direccion>
            <longitud>-16.274273621714052</longitud>
            <latitud>28.47383846986675</latitud>
        </parking>
        <parking>
            <direccion>CALLE GÜIMAR 17</direccion>
            <longitud>-16.27600121120529</longitud>
            <latitud>28.47251323167278</latitud>
        </parking>
        <parking>
            <direccion>CALLE MENCEY BENCOMO 53</direccion>
            <longitud>-16.272360179272088</longitud>
            <latitud>28.470731688016556</latitud>
        </parking>
        <parking>
            <direccion>CALLE GUIA DE ISORA 73</direccion>
            <longitud>-16.273248610654644</longitud>
            <latitud>28.472889093764223</latitud>
        </parking>
        <parking>
            <direccion>CALLE ICOD 41</direccion>
            <longitud>-16.272864155404598</longitud>
            <latitud>28.471246249456488</latitud>
        </parking>
        <parking>
            <direccion>CALLE GUIA DE ISORA 39</direccion>
            <longitud>-16.27372004682793</longitud>
            <latitud>28.47199260992995</latitud>
        </parking>
        <parking>
            <direccion>CALLE GUIA DE ISORA 21</direccion>
            <longitud>-16.273904040067926</longitud>
            <latitud>28.471647458233992</latitud>
        </parking>
        <parking>
            <direccion>CALLE LOS SILOS 69</direccion>
            <longitud>-16.274010058313703</longitud>
            <latitud>28.472779957530346</latitud>
        </parking>
        <parking>
            <direccion>CALLE LA OROTAVA 78</direccion>
            <longitud>-16.274319456417196</longitud>
            <latitud>28.472710096075346</latitud>
        </parking>
        <parking>
            <direccion>CALLE LA OROTAVA 70</direccion>
            <longitud>-16.274604108802603</longitud>
            <latitud>28.472509412774638</latitud>
        </parking>
        <parking>
            <direccion>CALLE LOS REALEJOS 18</direccion>
            <longitud>-16.27501707507106</longitud>
            <latitud>28.4730893370599</latitud>
        </parking>
        <parking>
            <direccion>CALLE POETA TOMAS MORALES 25</direccion>
            <longitud>-16.265383295104847</longitud>
            <latitud>28.472065110612185</latitud>
        </parking>
        <parking>
            <direccion>CALLE PRINCESA GUACIMARA 75</direccion>
            <longitud>-16.27006258436604</longitud>
            <latitud>28.47079321799668</latitud>
        </parking>
        <parking>
            <direccion>CALLE MENCEY BENCOMO 51</direccion>
            <longitud>-16.272381998494854</longitud>
            <latitud>28.470691126562123</latitud>
        </parking>
        <parking>
            <direccion>CALLE JUAN PEREZ DELGADO "NIJOTA" 30</direccion>
            <longitud>-16.26649517766036</longitud>
            <latitud>28.47259960918374</latitud>
        </parking>
        <parking>
            <direccion>CALLE POETA ZEROLO 6</direccion>
            <longitud>-16.26441115141705</longitud>
            <latitud>28.472018036120854</latitud>
        </parking>
        <parking>
            <direccion>CALLE POETA TABARES BARTLET 6</direccion>
            <longitud>-16.264759221600812</longitud>
            <latitud>28.472559477221665</latitud>
        </parking>
        <parking>
            <direccion>CALLE AUTODATE 72</direccion>
            <longitud>-16.320573898832304</longitud>
            <latitud>28.434698531185607</latitud>
        </parking>
        <parking>
            <direccion>AVENIDA TRES DE MAYO 5</direccion>
            <longitud>-16.25179149920365</longitud>
            <latitud>28.459948394205078</latitud>
        </parking>
        <parking>
            <direccion>AVENIDA TRES DE MAYO 5</direccion>
            <longitud>-16.251745743175995</longitud>
            <latitud>28.459928814742618</latitud>
        </parking>
        <parking>
            <direccion>CALLE SIMON BOLIVAR 18</direccion>
            <longitud>-16.271068406481255</longitud>
            <latitud>28.46335354945882</latitud>
        </parking>
        <parking>
            <direccion>CALLE POETA FRANCISCO IZQUIERDO 3A</direccion>
            <longitud>-16.26919297310109</longitud>
            <latitud>28.456897874318603</latitud>
        </parking>
        <parking>
            <direccion>CALLE RAMON BAUDET GRANDY 5</direccion>
            <longitud>-16.256388160824013</longitud>
            <latitud>28.476198778937604</latitud>
        </parking>
        <parking>
            <direccion>CALLE MIRAFLORES 4</direccion>
            <longitud>-16.251265191851125</longitud>
            <latitud>28.465451733763043</latitud>
        </parking>
        <parking>
            <direccion>CALLE CERVANTES 14</direccion>
            <longitud>-16.255734358433276</longitud>
            <latitud>28.461578617599713</latitud>
        </parking>
        <parking>
            <direccion>CALLE RAMON BAUDET GRANDY 11</direccion>
            <longitud>-16.25575816602789</longitud>
            <latitud>28.4765129529297</latitud>
        </parking>
        <parking>
            <direccion>CALLE BUENAVENTURA BONNET 16</direccion>
            <longitud>-16.27293001512661</longitud>
            <latitud>28.467133393469155</latitud>
        </parking>
        <parking>
            <direccion>CALLE HERNAN CORTÉS</direccion>
            <longitud>-16.28451112406661</longitud>
            <latitud>28.45338098916009</latitud>
        </parking>
        <parking>
            <direccion>AVENIDA PRINCIPES DE ESPAÑA 3</direccion>
            <longitud>-16.280780065979155</longitud>
            <latitud>28.455814040585217</latitud>
        </parking>
        <parking>
            <direccion>CALLE OBSIDIANA 6</direccion>
            <longitud>-16.287419465175063</longitud>
            <latitud>28.45554578804054</latitud>
        </parking>
        <parking>
            <direccion>CALLE OBSIDIANA 4</direccion>
            <longitud>-16.28734841475453</longitud>
            <latitud>28.455643376516516</latitud>
        </parking>
        <parking>
            <direccion>CALLE PERERA 4</direccion>
            <longitud>-16.30390238452514</longitud>
            <latitud>28.435875493936532</latitud>
        </parking>
        <parking>
            <direccion>AVENIDA TRES DE MAYO 22</direccion>
            <longitud>-16.25566313242329</longitud>
            <latitud>28.459410563533673</latitud>
        </parking>
        <parking>
            <direccion>CALLE EL REMANSO 14</direccion>
            <longitud>-16.282134160822523</longitud>
            <latitud>28.4469103269836</latitud>
        </parking>
        <parking>
            <direccion>CALLE EL VIENTO 28</direccion>
            <longitud>-16.308671688878324</longitud>
            <latitud>28.429173043052664</latitud>
        </parking>
        <parking>
            <direccion>CALLE 122 5</direccion>
            <longitud>-16.328161145257063</longitud>
            <latitud>28.44840229761207</latitud>
        </parking>
        <parking>
            <direccion>CALLE SOFIA DIAZ AFONSO 5</direccion>
            <longitud>-16.3160660385005</longitud>
            <latitud>28.443357402907186</latitud>
        </parking>
        <parking>
            <direccion>CALLE COROMINAS 1A</direccion>
            <longitud>-16.30804012231185</longitud>
            <latitud>28.436649128764483</latitud>
        </parking>
        <parking>
            <direccion>AVENIDA TRES DE MAYO 18</direccion>
            <longitud>-16.25522688694307</longitud>
            <latitud>28.459512468559616</latitud>
        </parking>
        <parking>
            <direccion>CALLE TANGARA 23</direccion>
            <longitud>-16.31291788950631</longitud>
            <latitud>28.440579157561434</latitud>
        </parking>
        <parking>
            <direccion>CALLE ANADE 14</direccion>
            <longitud>-16.314787908577106</longitud>
            <latitud>28.43996602023396</latitud>
        </parking>
        <parking>
            <direccion>CALLE ANADE 14</direccion>
            <longitud>-16.314741493136793</longitud>
            <latitud>28.43998503573149</latitud>
        </parking>
        <parking>
            <direccion>CALLE GUACAMAYO 2</direccion>
            <longitud>-16.316426948200075</longitud>
            <latitud>28.441276358109143</latitud>
        </parking>
        <parking>
            <direccion>CALLE MILLERO 7</direccion>
            <longitud>-16.316221353164092</longitud>
            <latitud>28.440830310386165</latitud>
        </parking>
        <parking>
            <direccion>CALLE GENCIANA 28</direccion>
            <longitud>-16.320232146212696</longitud>
            <latitud>28.429755632692785</latitud>
        </parking>
        <parking>
            <direccion>CALLE HALCON 1B</direccion>
            <longitud>-16.313309226544305</longitud>
            <latitud>28.44191154110658</latitud>
        </parking>
        <parking>
            <direccion>CALLE AUTODATE 111</direccion>
            <longitud>-16.320691105070342</longitud>
            <latitud>28.43396343542648</latitud>
        </parking>
        <parking>
            <direccion>CALLE EL LAGAR 15</direccion>
            <longitud>-16.33074843230004</longitud>
            <latitud>28.443719902377588</latitud>
        </parking>
        <parking>
            <direccion>CALLE LA OROTAVA 10</direccion>
            <longitud>-16.27546259810971</longitud>
            <latitud>28.470901975163244</latitud>
        </parking>
        <parking>
            <direccion>CALLE CHAXIRAXI 9</direccion>
            <longitud>-16.305403768324194</longitud>
            <latitud>28.428109919874252</latitud>
        </parking>
        <parking>
            <direccion>CALLE CHAXIRAXI 15</direccion>
            <longitud>-16.305370521224084</longitud>
            <latitud>28.42784651256499</latitud>
        </parking>
        <parking>
            <direccion>CALLE DOMINGO MADAM 3</direccion>
            <longitud>-16.28055579821393</longitud>
            <latitud>28.45474259811958</latitud>
        </parking>
        <parking>
            <direccion>CALLE CAPITAN GOMEZ LANDERO 5</direccion>
            <longitud>-16.261477433119232</longitud>
            <latitud>28.46956831786134</latitud>
        </parking>
        <parking>
            <direccion>AVENIDA LOS MAJUELOS 76</direccion>
            <longitud>-16.32084510062754</longitud>
            <latitud>28.431882855867936</latitud>
        </parking>
        <parking>
            <direccion>CALLE REPUBLICA DE HONDURAS 1</direccion>
            <longitud>-16.2474142318051</longitud>
            <latitud>28.47340202094395</latitud>
        </parking>
        <parking>
            <direccion>CALLE REPUBLICA DE HONDURAS 1</direccion>
            <longitud>-16.247420994563342</longitud>
            <latitud>28.473357845889346</latitud>
        </parking>
        <parking>
            <direccion>CALLE LOS REALEJOS 9</direccion>
            <longitud>-16.276921492399385</longitud>
            <latitud>28.471045802091307</latitud>
        </parking>
        <parking>
            <direccion>CALLE TREBOL 5</direccion>
            <longitud>-16.31919845277202</longitud>
            <latitud>28.429293251901495</latitud>
        </parking>
        <parking>
            <direccion>CALLE AUTODATE 45</direccion>
            <longitud>-16.320146910156794</longitud>
            <latitud>28.43595016568279</latitud>
        </parking>
        <parking>
            <direccion>CALLE EL CAMBULLON 12</direccion>
            <longitud>-16.32108052682908</longitud>
            <latitud>28.43389062896656</latitud>
        </parking>
        <parking>
            <direccion>CALLE GUACAMAYO 1</direccion>
            <longitud>-16.31636601960615</longitud>
            <latitud>28.441230390853875</latitud>
        </parking>
        <parking>
            <direccion>AVENIDA TRES DE MAYO 77</direccion>
            <longitud>-16.259762978790523</longitud>
            <latitud>28.458223689249756</latitud>
        </parking>
        <parking>
            <direccion>CALLE LOS LLANOS SEIS</direccion>
            <longitud>-16.256051766975435</longitud>
            <latitud>28.455713972628686</latitud>
        </parking>
        <parking>
            <direccion>AVENIDA DE VENEZUELA 4E</direccion>
            <longitud>-16.270425710474164</longitud>
            <latitud>28.466782777817627</latitud>
        </parking>
        <parking>
            <direccion>AVENIDA LITRE 7</direccion>
            <longitud>-16.31865650291479</longitud>
            <latitud>28.43448437617187</latitud>
        </parking>
        <parking>
            <direccion>CALLE LA DESTILADERA 9</direccion>
            <longitud>-16.324260485447834</longitud>
            <latitud>28.433620554244012</latitud>
        </parking>
        <parking>
            <direccion>AVENIDA BUENOS AIRES 5</direccion>
            <longitud>-16.25151639135362</longitud>
            <latitud>28.46094169957038</latitud>
        </parking>
        <parking>
            <direccion>AVENIDA PICO TEIDE 8</direccion>
            <longitud>-16.311307331546345</longitud>
            <latitud>28.44735197955946</latitud>
        </parking>
        <parking>
            <direccion>CALLE JUAN PEDRO DAVILA GARCIA 2</direccion>
            <longitud>-16.27333574721945</longitud>
            <latitud>28.463569597464588</latitud>
        </parking>
        <parking>
            <direccion>CALLE DOLORES ESPINOSA CALERO 12</direccion>
            <longitud>-16.310633383738338</longitud>
            <latitud>28.44170363764527</latitud>
        </parking>
        <parking>
            <direccion>CALLE EL TANGANILLO 20</direccion>
            <longitud>-16.313771220837452</longitud>
            <latitud>28.445962519593547</latitud>
        </parking>
        <parking>
            <direccion>CALLE EL WINCHE 1</direccion>
            <longitud>-16.323777568017025</longitud>
            <latitud>28.437171425019496</latitud>
        </parking>
        <parking>
            <direccion>CALLE AVETORO 1</direccion>
            <longitud>-16.307427089676928</longitud>
            <latitud>28.43661673156908</latitud>
        </parking>
        <parking>
            <direccion>CALLE TOMAS DE ARMAS QUINTERO 5</direccion>
            <longitud>-16.286562864236238</longitud>
            <latitud>28.449193622008703</latitud>
        </parking>
        <parking>
            <direccion>CALLE TOMAS DE ARMAS QUINTERO 2</direccion>
            <longitud>-16.28583479866164</longitud>
            <latitud>28.44981030929769</latitud>
        </parking>
        <parking>
            <direccion>CALLE LA BERLINA 35</direccion>
            <longitud>-16.31400478007611</longitud>
            <latitud>28.445483741110873</latitud>
        </parking>
        <parking>
            <direccion>CALLE GRAN DUQUE 1</direccion>
            <longitud>-16.31786351455737</longitud>
            <latitud>28.430425913697214</latitud>
        </parking>
        <parking>
            <direccion>CTRA DE HOYA FRIA 26</direccion>
            <longitud>-16.284128353754095</longitud>
            <latitud>28.43969117898902</latitud>
        </parking>
        <parking>
            <direccion>CALLE ARCE 6</direccion>
            <longitud>-16.306991994515734</longitud>
            <latitud>28.441067185449274</latitud>
        </parking>
        <parking>
            <direccion>CALLE DONDIEGO 47</direccion>
            <longitud>-16.3212556435368</longitud>
            <latitud>28.42899214697286</latitud>
        </parking>
        <parking>
            <direccion>CALLE CHIRIGER 10</direccion>
            <longitud>-16.30393863085472</longitud>
            <latitud>28.43879090143167</latitud>
        </parking>
        <parking>
            <direccion>CALLE DE LOS SUEÑOS 86</direccion>
            <longitud>-16.265121353721128</longitud>
            <latitud>28.471283475721</latitud>
        </parking>
        <parking>
            <direccion>CALLE POETA TABARES BARTLET 36</direccion>
            <longitud>-16.265628315463626</longitud>
            <latitud>28.471313693463063</latitud>
        </parking>
        <parking>
            <direccion>CALLE FERNANDO PRIMO DE RIVERA 9</direccion>
            <longitud>-16.261821812593883</longitud>
            <latitud>28.468466951076135</latitud>
        </parking>
        <parking>
            <direccion>PLAZA JOSE AROZENA PAREDES</direccion>
            <longitud>-16.251363375778332</longitud>
            <latitud>28.46991928354679</latitud>
        </parking>
        <parking>
            <direccion>CALLE PEDRO DOBLADO CLAVERIE 16</direccion>
            <longitud>-16.28398902247564</longitud>
            <latitud>28.451169137140518</latitud>
        </parking>
        <parking>
            <direccion>CALLE SAN JUAN DE LA CRUZ 40</direccion>
            <longitud>-16.274886835680267</longitud>
            <latitud>28.450106353344594</latitud>
        </parking>
        <parking>
            <direccion>PSAJE SETIREA 2</direccion>
            <longitud>-16.27521294575003</longitud>
            <latitud>28.454657093032267</latitud>
        </parking>
        <parking>
            <direccion>CALLE JUAN BAUTISTA ACEVEDO 12</direccion>
            <longitud>-16.276097712938956</longitud>
            <latitud>28.4554093971096</latitud>
        </parking>
        <parking>
            <direccion>CALLE SENDA "V" 5</direccion>
            <longitud>-16.273732611097756</longitud>
            <latitud>28.455534345536243</latitud>
        </parking>
        <parking>
            <direccion>CALLE POETA TRUJILLO ARMAS 13</direccion>
            <longitud>-16.274642407457375</longitud>
            <latitud>28.455954115141527</latitud>
        </parking>
        <parking>
            <direccion>CALLE GARCIA LORCA 3</direccion>
            <longitud>-16.271227078105987</longitud>
            <latitud>28.45626736772502</latitud>
        </parking>
        <parking>
            <direccion>CALLE ENRIQUE WOLFSON 39</direccion>
            <longitud>-16.25732829541022</longitud>
            <latitud>28.472823004170355</latitud>
        </parking>
        <parking>
            <direccion>CALLE SABINO BERTHELOT 33</direccion>
            <longitud>-16.25369981251733</longitud>
            <latitud>28.46904687438281</latitud>
        </parking>
        <parking>
            <direccion>CALLE NUMANCIA 3</direccion>
            <longitud>-16.253390353245756</longitud>
            <latitud>28.469777735460212</latitud>
        </parking>
        <parking>
            <direccion>CALLE DOCTOR JOSE NAVEIRAS 2</direccion>
            <longitud>-16.252687344711664</longitud>
            <latitud>28.47223686801093</latitud>
        </parking>
        <parking>
            <direccion>CALLE HECTOR 20</direccion>
            <longitud>-16.24470355265034</longitud>
            <latitud>28.48395266082546</latitud>
        </parking>
        <parking>
            <direccion>CALLE PISTA MILITAR, (LA ALEGRIA) 8</direccion>
            <longitud>-16.24498013706553</longitud>
            <latitud>28.484178567956974</latitud>
        </parking>
        <parking>
            <direccion>CALLE ATLANTICO 23</direccion>
            <longitud>-16.239247019879954</longitud>
            <latitud>28.48743556625086</latitud>
        </parking>
        <parking>
            <direccion>CALLE PEDRO DELGADO 67</direccion>
            <longitud>-16.23850908330707</longitud>
            <latitud>28.488433044154426</latitud>
        </parking>
        <parking>
            <direccion>PLAYA DE LAS TERESITAS</direccion>
            <longitud>-16.18201452799006</longitud>
            <latitud>28.510774955104292</latitud>
        </parking>
        <parking>
            <direccion>CALLE JUAN SILVESTRE 16</direccion>
            <longitud>-16.23752258364896</longitud>
            <latitud>28.487284200393724</latitud>
        </parking>
        <parking>
            <direccion>CALLE JUAN SILVESTRE 18</direccion>
            <longitud>-16.237535418409827</longitud>
            <latitud>28.487329123499382</latitud>
        </parking>
        <parking>
            <direccion>CALLE ADONIS 3</direccion>
            <longitud>-16.243674829030823</longitud>
            <latitud>28.483786116913247</latitud>
        </parking>
        <parking>
            <direccion>CTRA GENERAL DEL SUR 46</direccion>
            <longitud>-16.302514478378306</longitud>
            <latitud>28.44146842822117</latitud>
        </parking>
        <parking>
            <direccion>CALLE LA DAMA 1C</direccion>
            <longitud>-16.303283200102598</longitud>
            <latitud>28.44605477132824</latitud>
        </parking>
        <parking>
            <direccion>CALLE ROBERTO SANCHEZ SUAREZ 8</direccion>
            <longitud>-16.30050740182982</longitud>
            <latitud>28.443678824213812</latitud>
        </parking>
        <parking>
            <direccion>CALLE ZONZAMAS 10</direccion>
            <longitud>-16.299595886670822</longitud>
            <latitud>28.443600180887678</latitud>
        </parking>
        <parking>
            <direccion>CALLE ANTONIO LECUONA HARDISSON 16A</direccion>
            <longitud>-16.27500065111027</longitud>
            <latitud>28.448696773938956</latitud>
        </parking>
        <parking>
            <direccion>CALLE ANTONIO LECUONA HARDISSON 16A</direccion>
            <longitud>-16.274951543201436</longitud>
            <latitud>28.448711654108717</latitud>
        </parking>
        <parking>
