<?xml version="1.0" encoding="UTF-8" standalone="yes"?>
<ciudad xmlns="http://www.um.es/ciudad">
    <id>2</id>
    <nombre>Málaga</nombre>
    <codigoPostal>29001</codigoPostal>
    <sitios-de-interes>
        <sitioInteres>
            <nombre>Catedral de Málaga</nombre>
            <descripcion>La Santa Iglesia Catedral Basílica de la Encarnación es la catedral de Málaga, España. Situada enfrente de la plaza del Obispo, el templo es considerado una de las joyas renacentistas más valiosas de Andalucía. Se encuentra dentro de los límites que marcaba la desaparecida muralla árabe sobre el (...)</descripcion>
            <rank>98</rank>
            <direccion>
                <calle>Calle Molina Lario</calle>
                <numero>9</numero>
                <localidad>Málaga</localidad>
                <codigoPostal>29015</codigoPostal>
                <lat>36.720042</lat>
                <lng>-4.42012</lng>
            </direccion>
        </sitioInteres>
        <sitioInteres>
            <nombre>Toma de Málaga (1487)</nombre>
            <descripcion>Se conoce como la toma de Málaga al asedio llevado a cabo en 1487 mediante el cual los Reyes Católicos conquistaron la ciudad de Málaga a los musulmanes en el marco de la Guerra de Granada. El asedio fue un largo evento de unos cuatro meses de duración y supuso un episodio sangriento en la guerra (...)</descripcion>
            <rank>90</rank>
            <direccion>
                <calle>Calle Molina Lario</calle>
                <numero>22</numero>
                <localidad>Málaga</localidad>
                <codigoPostal>29015</codigoPostal>
                <lat>36.719</lat>
                <lng>-4.42</lng>
            </direccion>
        </sitioInteres>
        <sitioInteres>
            <nombre>Distrito Centro (Málaga)</nombre>
            <descripcion>El Distrito Centro o Distrito 1 es uno de los once distritos en que está dividida administrativamente la ciudad de Málaga. En ocasiones también es llamado distrito Málaga-Centro. Como su nombre indica, el distrito 1 está situado en el centro de la ciudad (...)</descripcion>
            <rank>98</rank>
            <direccion>
                <calle>Plaza Constitucion</calle>
                <numero>12</numero>
                <localidad>Málaga</localidad>
                <codigoPostal>29015</codigoPostal>
                <lat>36.72113</lat>
                <lng>-4.42155</lng>
            </direccion>
        </sitioInteres>
        <sitioInteres>
            <nombre>Convento de San Agustín (Málaga)</nombre>
            <descripcion>El antiguo Convento de San Agustín es un edificio situado en el Centro Histórico de la ciudad de Málaga, España. Se localiza en la calle San Agustín junto al Palacio de Buenavista, sede del Museo Picasso Málaga.  (...)</descripcion>
            <rank>77</rank>
            <direccion>
                <calle>Calle San Agustin</calle>
                <numero>6</numero>
                <localidad>Málaga</localidad>
                <codigoPostal>29015</codigoPostal>
                <lat>36.721202777777776</lat>
                <lng>-4.418886111111111</lng>
            </direccion>
        </sitioInteres>
        <sitioInteres>
            <nombre>Museo Revello de Toro</nombre>
            <descripcion>El Museo Revello de Toro, situado en la casa-taller de Pedro de Mena, es una pinacoteca de la ciudad de Málaga, España. Está situado en calle Císter, en el centro histórico de la ciudad, en la que fue la vivienda de Pedro de Mena durante su estancia en Málaga. Como su nombre indica, el museo está dedicado al pintor malagueño Félix Revello de Toro. Inaugurado el 27 de noviembre de 2010, el museo contiene una colección de 132 obras del artista, de las que se exponen 117 al mismo tiempo. Las obras se organizan de acuerdo a criterios temáticos y técnicos. Así, se agrupan las obras de carácter íntimo con bodegones y retratos familiares por un lado, y por otro, las pinturas femeninas por las que es conocido sobre todo el artista. Otra sala contiene bocetos y dibujos. El museo cuenta asimismo con una sala de exposiciones temporales, donde se expone una colección de carteles.​</descripcion>
            <rank>22</rank>
            <direccion>
                <calle>Calle Afligidos</calle>
                <numero>2</numero>
                <localidad>Málaga</localidad>
                <codigoPostal>29015</codigoPostal>
                <lat>36.720454</lat>
                <lng>-4.418385</lng>
            </direccion>
        </sitioInteres>
        <sitioInteres>
            <nombre>Plaza de la Constitución (Málaga)</nombre>
            <descripcion>La Plaza de la Constitución es una vía pública del centro de la ciudad de Málaga, España. Se trata de la antigua Plaza Mayor, situada en el corazón del centro histórico de la ciudad, que desde el siglo XV ha sido el espacio público y político de la ciudad por excelencia.  (...)</descripcion>
            <rank>87</rank>
            <direccion>
                <calle>Plaza Constitucion</calle>
                <numero>9</numero>
                <localidad>Málaga</localidad>
                <codigoPostal>29008</codigoPostal>
                <lat>36.7211</lat>
                <lng>-4.422</lng>
            </direccion>
        </sitioInteres>
        <sitioInteres>
            <nombre>Abadía del Císter</nombre>
            <descripcion>La antigua Abadía de Santa Ana de Recoletas Bernardas del Císter, más conocida como la Abadía del Císter, es un edificio situado en el centro histórico de la ciudad española de Málaga.  (...)</descripcion>
            <rank>30</rank>
            <direccion>
                <calle>Calle Cister</calle>
                <numero>15</numero>
                <localidad>Málaga</localidad>
                <codigoPostal>29015</codigoPostal>
                <lat>36.720556</lat>
                <lng>-4.417778</lng>
            </direccion>
        </sitioInteres>
        <sitioInteres>
            <nombre>Palacio de los Condes de Buenavista</nombre>
            <descripcion>El palacio de los Condes de Buenavista de la Victoria, sito en la calle San Agustín de la ciudad española de Málaga, fue declarado Monumento Nacional en 1939. Se trata de un edificio de la arquitectura civil española del siglo XVI, construido hacia 1530-1540 por  y sede del Museo Picasso Málaga. Originalmente fue el palacio residencial de los Condes de Buenavista de la Victoria, de ahí su denominación. Es el más importante ejemplo de arquitectura civil realizada tras la conquista de Málaga por los Reyes Católicos. Su arquitectura es renacentista, con fachada plateresca y soluciones mudéjares. Consta de sótano, baja y primera planta, con una fachada plateresca maciza de aparejo de sillares, donde se trabajan con sencillez pero de forma rotunda los elementos decorativos que enmarcan los huecos, de grandes dimensiones y asimétricos. La puerta principal de acceso fue diseñada junto con el balcón superior y el interior se organiza en torno a un patio con doble galería. A través de la escalera, al fondo a la derecha se accede a la planta primera que repite el esquema de planta baja. La torre del edificio posee guardapolvo y arcas bajo alfiz en su parte superior, con aparejo de sillares de grandes dimensiones. El Palacio se convirtió durante el siglo XX en la sede del Museo de Bellas Artes de Málaga, a raíz del Real Decreto de 1913 que reorganizaba este tipo de museos. Alquilado durante años por su propietario al Estado, en 1996 fue designado como sede del Museo Picasso Málaga y, tras la inauguración de éste en 2003, en 2009 se aprobó la cesión del edificio, que era propiedad de la administración autonómica, a la fundación resultante de la fusión de la Fundación Picasso y la "Fundación Paul, Christine y Bernard Ruiz-Picasso".​</descripcion>
            <foto>http://commons.wikimedia.org/wiki/Special:FilePath/MPM_2.jpg?width=300</foto>
            <rank>89</rank>
            <direccion>
                <calle>Calle San Agustin</calle>
                <numero>8</numero>
                <localidad>Málaga</localidad>
                <codigoPostal>29015</codigoPostal>
                <lat>36.72166666666667</lat>
                <lng>-4.418333333333334</lng>
            </direccion>
        </sitioInteres>
        <sitioInteres>
            <nombre>Museo Picasso Málaga</nombre>
            <descripcion>El Museo Picasso Málaga (MPM) es una de los dos pinacotecas dedicadas a Pablo Picasso situado en su ciudad natal Málaga (España), siendo la otra la Fundación Picasso Museo Casa Natal. Las doscientas ochenta y cinco obras que reúne la colección MPM abarcan las innovaciones revolucionarias de Picasso, (...)</descripcion>
            <rank>94</rank>
            <direccion>
                <calle>Calle San Agustin</calle>
                <numero>8</numero>
                <localidad>Málaga</localidad>
                <codigoPostal>29015</codigoPostal>
                <lat>36.72166666666667</lat>
                <lng>-4.418333333333334</lng>
            </direccion>
        </sitioInteres>
        <sitioInteres>
            <nombre>Museo Carmen Thyssen Málaga</nombre>
            <descripcion>El Museo Carmen Thyssen Málaga es uno de los principales museos de la ciudad española de Málaga.http://www.laopiniondemalaga.es/cultura-espectaculos/2016/02/05/grandes-museos-malaga-reciben-millon/826595.html Fue inaugurado en 2011 y reúne una de las colecciones más importantes de pintura española y (...)</descripcion>
            <rank>89</rank>
            <direccion>
                <calle>Calle Compañia</calle>
                <numero>6</numero>
                <localidad>Málaga</localidad>
                <codigoPostal>29008</codigoPostal>
                <lat>36.72138888888889</lat>
                <lng>-4.422777777777778</lng>
            </direccion>
        </sitioInteres>
        <sitioInteres>
            <nombre>Museo de Málaga</nombre>
            <descripcion>El Museo de Málaga es un centro expositivo de la ciudad española de Málaga que da cabida a las colecciones de dos instituciones museísticas malacitanas, el Museo de Bellas Artes de Málaga y el Museo Arqueológico Provincial de Málaga, contando con más de 15 (...)</descripcion>
            <rank>94</rank>
            <direccion>
                <calle>Plaza Aduana</calle>
                <numero>3</numero>
                <localidad>Málaga</localidad>
                <codigoPostal>29015</codigoPostal>
                <lat>36.720087</lat>
                <lng>-4.417401</lng>
            </direccion>
        </sitioInteres>
        <sitioInteres>
            <nombre>Palacio de la Aduana (Málaga)</nombre>
            <descripcion>El Palacio de la Aduana de Málaga es un edificio proyectado en 1788, destinado en su uso inicial a atender el tráfico del puerto. Situado junto al parque de Málaga, actualmente es la sede del Museo de Málaga.  (...)</descripcion>
            <rank>88</rank>
            <direccion>
                <calle>Travesia Pintor Nogales</calle>
                <numero>2</numero>
                <localidad>Málaga</localidad>
                <codigoPostal>29016</codigoPostal>
                <lat>36.719973</lat>
                <lng>-4.417172</lng>
            </direccion>
        </sitioInteres>
        <sitioInteres>
            <nombre>Museo Interactivo de la Música de Málaga</nombre>
            <descripcion>El Museo Interactivo de la Música Málaga (MIMMA) fue creado en 2003 y consta de más de 1.000 instrumentos de diferentes épocas, países y culturas; lo que lo convierte en una de las colecciones privadas más completas de España, por su variedad además de por su dimensión (...)</descripcion>
            <rank>77</rank>
            <direccion>
                <calle>Calle Beatas</calle>
                <numero>15</numero>
                <localidad>Málaga</localidad>
                <codigoPostal>29008</codigoPostal>
                <lat>36.723240000000004</lat>
                <lng>-4.419844166666667</lng>
            </direccion>
        </sitioInteres>
        <sitioInteres>
            <nombre>Calle Camas</nombre>
            <descripcion>La Calle de Camas es una vía ubicada en el Centro Histórico de la ciudad española de Málaga. Es una de las más antiguas de Málaga​ y discurre a lo largo de 120 metros en dirección Norte-Sur partiendo de la Calle Cisneros y desembocando en la Calle Marqués. Por el lado Este se encuentran los accesos a las calles Castillo de Sohail y Calderón de la Barca.​</descripcion>
            <rank>50</rank>
            <direccion>
                <calle>Calle Camas</calle>
                <numero>5</numero>
                <localidad>Málaga</localidad>
                <codigoPostal>29005</codigoPostal>
                <lat>36.72027777777778</lat>
                <lng>-4.424444444444445</lng>
            </direccion>
        </sitioInteres>
        <sitioInteres>
            <nombre>Universidad de Málaga</nombre>
            <descripcion>La Universidad de Málaga o, según sus siglas, UMA, es una institución de enseñanza superior y titularidad pública fundada en 1972. En ella estudian cerca de 40 000 alumnos y trabajan cerca de 2 450 profesores. Oferta 63 titulaciones de grado y 120 de posgrado, entre programas de doctorado, másteres (...)</descripcion>
            <rank>100</rank>
            <direccion>
                <calle>Calle Alcalde Pedro Luis Alonso</calle>
                <numero>2</numero>
                <localidad>Málaga</localidad>
                <codigoPostal>29016</codigoPostal>
                <lat>36.72</lat>
                <lng>-4.416111111111111</lng>
            </direccion>
        </sitioInteres>
        <sitioInteres>
            <nombre>Alcazaba de Málaga</nombre>
            <descripcion>La alcazaba de Málaga (del árabe al-qaṣbah, قصبة, al kasbah, 'ciudadela') es una fortificación palaciega de la época musulmana, construida sobre una anterior fortificación de origen fenicio-púnico. Se encuentra en las faldas del monte Gibralfaro, en una posición elevada pero contigua y unida al (...)</descripcion>
            <rank>97</rank>
            <direccion>
                <calle>Calle Guillen Sotelo</calle>
                <numero>6</numero>
                <localidad>Málaga</localidad>
                <codigoPostal>29016</codigoPostal>
                <lat>36.7211</lat>
                <lng>-4.41583</lng>
            </direccion>
        </sitioInteres>
        <sitioInteres>
            <nombre>Plaza de la Merced</nombre>
            <descripcion>La plaza de la Merced es una plaza situada en el barrio homónimo de la ciudad española de Málaga. Se trata de una de las principales plazas del centro de la ciudad, donde se desarrollan habitualmente actos y festivales. En la plaza están situados el obelisco en homenaje al General Torrijos y la casa natal de Picasso, sede de la Fundación Picasso Museo Casa Natal.</descripcion>
            <rank>77</rank>
            <direccion>
                <calle>Plaza Merced</calle>
                <numero>25</numero>
                <localidad>Málaga</localidad>
                <codigoPostal>29012</codigoPostal>
                <lat>36.7234</lat>
                <lng>-4.4175</lng>
            </direccion>
        </sitioInteres>
        <sitioInteres>
            <nombre>Puente de los Alemanes</nombre>
            <descripcion>El Puente de los Alemanes (o de Santo Domingo) es un pequeño puente que Alemania donó a la ciudad española de Málaga y que fue construido en 1909.</descripcion>
            <rank>35</rank>
            <direccion>
                <calle>Pasillo Santo Domingo</calle>
                <numero>5</numero>
                <localidad>Málaga</localidad>
                <codigoPostal>29007</codigoPostal>
                <lat>36.71933333333334</lat>
                <lng>-4.4255555555555555</lng>
            </direccion>
        </sitioInteres>
        <sitioInteres>
            <nombre>Málaga</nombre>
            <descripcion>Málaga es una ciudad y un municipio de España, capital de la provincia homónima y ubicada en la comunidad autónoma de Andalucía. Con una población de 570 006 habitantes en 2017, Málaga es la más poblada de España, la segunda de Andalucía y la número cuarenta y seis de la Unión Europea, así como la (...)</descripcion>
            <rank>100</rank>
            <direccion>
                <calle>Calle Guillen Sotelo</calle>
                <numero>10</numero>
                <localidad>Málaga</localidad>
                <codigoPostal>29016</codigoPostal>
                <lat>36.72095</lat>
                <lng>-4.41506</lng>
            </direccion>
        </sitioInteres>
        <sitioInteres>
            <nombre>Puente de la Aurora (Málaga)</nombre>
            <descripcion>El puente de la Aurora, cuya denominación oficial es Puente de Alfonso XIII, es un histórico puente de la ciudad de Málaga, España. Su construcción concluyó en el año 1930, tras dos años de obras.. Consultado el 23/09/12.  (...)</descripcion>
            <rank>17</rank>
            <direccion>
                <calle>Avenida Rosaleda</calle>
                <numero>1</numero>
                <localidad>Málaga</localidad>
                <codigoPostal>29008</codigoPostal>
                <lat>36.72174166666667</lat>
                <lng>-4.4255555555555555</lng>
            </direccion>
        </sitioInteres>
        <sitioInteres>
            <nombre>Fundación Picasso Museo Casa Natal</nombre>
            <descripcion>La Fundación Picasso Museo Casa Natal es una institución cultural con sede en la ciudad española de Málaga que tiene como objetivo la promoción y difusión de la obra del pintor Pablo Picasso. Creada por el ayuntamiento de Málaga en 1988, está ubicada en el inmueble de la Casa Natal de Picasso, en (...)</descripcion>
            <rank>79</rank>
            <direccion>
                <calle>Plaza Merced</calle>
                <numero>16</numero>
                <localidad>Málaga</localidad>
                <codigoPostal>29012</codigoPostal>
                <lat>36.724</lat>
                <lng>-4.4175</lng>
            </direccion>
        </sitioInteres>
        <sitioInteres>
            <nombre>Batalla de Málaga (1937)</nombre>
            <descripcion>La batalla de Málaga fue una ofensiva de principios de 1937 lanzada por una fuerza combinada del bando sublevado y los italianos del Corpo Truppe Volontarie para arrebatar el control de la provincia de Málaga a los republicanos durante la Guerra Civil Española (...)</descripcion>
            <rank>93</rank>
            <direccion>
                <calle></calle>
                <numero>0</numero>
                <localidad></localidad>
                <codigoPostal></codigoPostal>
                <lat>36.7167</lat>
                <lng>-4.4167</lng>
            </direccion>
        </sitioInteres>
        <sitioInteres>
            <nombre>Provincia de Spania</nombre>
            <descripcion>La provincia de Spania (en latín Provincia Spaniae) fue una provincia del Imperio bizantino entre los siglos VI y VII. La provincia, la más occidental de cuantas constituyeron el Imperio a lo largo de su historia, se formó como parte de las campañas militares de Justiniano I el Grande en sus esfuerzos por restaurar el Imperio romano de Occidente. Su territorio incluía una zona de la península ibérica arrebatada al reino visigodo, que había formado parte del desaparecido reino vándalo. La ciudad de Septem (actual Ceuta), aunque también perteneció al reino visigodo, fue incluida en la provincia de .​</descripcion>
            <rank>97</rank>
            <direccion>
                <calle></calle>
                <numero>0</numero>
                <localidad></localidad>
                <codigoPostal></codigoPostal>
                <lat>36.7167</lat>
                <lng>-4.4167</lng>
            </direccion>
        </sitioInteres>
        <sitioInteres>
            <nombre>Taifa de Málaga</nombre>
            <descripcion>La Taifa de Málaga o Taifa mālaqui fue un reino independiente musulmán que surgió en al-Ándalus en 1026, a raíz de la desintegración que el Califato de Córdoba venía sufriendo desde 1008, y que desaparecería definitivamente en 1238 al ser conquistada por el Reino nazarí de Granada (...)</descripcion>
            <rank>88</rank>
            <direccion>
                <calle></calle>
                <numero>0</numero>
                <localidad></localidad>
                <codigoPostal></codigoPostal>
                <lat>36.71666666666667</lat>
                <lng>-4.416666666666667</lng>
            </direccion>
        </sitioInteres>
        <sitioInteres>
            <nombre>Circunscripción electoral de Málaga</nombre>
            <descripcion>La provincia de Málaga es una de las 52 circunscripciones electorales utilizadas como distritos electorales desde 1977 para la cámara baja de las Cortes Españolas, el Congreso de los Diputados, y una de las 60 de la cámara alta, el Senado (...)</descripcion>
            <rank>97</rank>
            <direccion>
                <calle></calle>
                <numero>0</numero>
                <localidad></localidad>
                <codigoPostal></codigoPostal>
                <lat>36.71666666666667</lat>
                <lng>-4.416666666666667</lng>
            </direccion>
        </sitioInteres>
        <sitioInteres>
            <nombre>Consorcio de Transporte Metropolitano del Área de Málaga</nombre>
            <descripcion>El Consorcio de Transporte Metropolitano del Área de Málaga (CTMAM) es una entidad de derecho público constituida el 18 de septiembre de 2003 para articular la cooperación económica, técnica y administrativa entre las administraciones consorciadas a fin de ejercer de forma conjunta y coordinada las (...)</descripcion>
            <rank>99</rank>
            <direccion>
                <calle></calle>
                <numero>0</numero>
                <localidad></localidad>
                <codigoPostal></codigoPostal>
                <lat>36.71666666666667</lat>
                <lng>-4.416666666666667</lng>
            </direccion>
        </sitioInteres>
        <sitioInteres>
            <nombre>Provincia de Málaga</nombre>
            <descripcion>Málaga es una de las ocho provincias españolas que componen la comunidad autónoma de Andalucía. Está situada al sur de la península ibérica, en la costa mediterránea, entre las provincias de Granada, al este, y Cádiz, al oeste. Al norte limita con las provincias de Córdoba y Sevilla (...)</descripcion>
            <rank>100</rank>
            <direccion>
                <calle></calle>
                <numero>0</numero>
                <localidad></localidad>
                <codigoPostal></codigoPostal>
                <lat>36.71666666666667</lat>
                <lng>-4.416666666666667</lng>
            </direccion>
        </sitioInteres>
        <sitioInteres>
            <nombre>Puerto de Málaga</nombre>
            <descripcion>El Puerto de Málaga es un puerto marítimo español que se encuentra en la Bahía de Málaga, en el sur de la Península Ibérica, en el Mediterráneo occidental. Gestionado por la Autoridad Portuaria de Málaga, es un puerto comercial, de pasajeros, de cruceros, deportivo y pesquero (...)</descripcion>
            <rank>97</rank>
            <direccion>
                <calle></calle>
                <numero>0</numero>
                <localidad></localidad>
                <codigoPostal></codigoPostal>
                <lat>36.716667</lat>
                <lng>-4.416111</lng>
            </direccion>
        </sitioInteres>
        <sitioInteres>
            <nombre>Centro Pompidou de Málaga</nombre>
            <descripcion>El Centre Pompidou Málaga es una sede del Centro Nacional de Arte y Cultura Georges Pompidou de Francia ubicada en el espacio denominado El Cubo en la ciudad española de Málaga. Se trata de la segunda sede externa al centro original parisino y la primera situada fuera de Francia (...)</descripcion>
            <rank>82</rank>
            <direccion>
                <calle>Paseo Farola</calle>
                <numero>4</numero>
                <localidad>Málaga</localidad>
                <codigoPostal>29016</codigoPostal>
                <lat>36.71888888888889</lat>
                <lng>-4.4125000000000005</lng>
            </direccion>
        </sitioInteres>
        <sitioInteres>
            <nombre>Centro de Arte Contemporáneo de Málaga</nombre>
            <descripcion>El Centro de Arte Contemporáneo de Málaga (CAC Málaga) es una iniciativa cultural del Ayuntamiento de Málaga que tiene como objetivo la difusión de las artes plásticas del siglo XX y XXI. El antiguo Mercado de Mayoristas de Málaga, edificio declarado Bien de interés cultural y sede del centro, (...)</descripcion>
            <rank>79</rank>
            <direccion>
                <calle>Avenida Comandante Benitez</calle>
                <numero>4</numero>
                <localidad>Málaga</localidad>
                <codigoPostal>29001</codigoPostal>
                <lat>36.714444444444446</lat>
                <lng>-4.4255555555555555</lng>
            </direccion>
        </sitioInteres>
    </sitios-de-interes>
    <parking-movilidad-reducida>
        <parking>
            <direccion>Av. Nuestra Señora de las Guías,6</direccion>
            <longitud>-4.421492</longitud>
            <latitud>36.73840504</latitud>
        </parking>
        <parking>
            <direccion>Cl. Don Rodrigo,1</direccion>
            <longitud>-4.42355275</longitud>
            <latitud>36.7252125</latitud>
        </parking>
        <parking>
            <direccion>Av. Doctor Galvez Ginachero,23</direccion>
            <longitud>-4.42933291</longitud>
            <latitud>36.72690439</latitud>
        </parking>
        <parking>
            <direccion>Av. Manuel Gorria,42</direccion>
            <longitud>-4.41643953</longitud>
            <latitud>36.73618441</latitud>
        </parking>
        <parking>
            <direccion>Av. Rosaleda,18</direccion>
            <longitud>-4.42544371</longitud>
            <latitud>36.72442351</latitud>
        </parking>
        <parking>
            <direccion>Cl. Actriz Rosario Pino,10</direccion>
            <longitud>-4.42466319</longitud>
            <latitud>36.7310125</latitud>
        </parking>
        <parking>
            <direccion>Cl. Bolivia,106</direccion>
            <longitud>-4.376417</longitud>
            <latitud>36.72155704</latitud>
        </parking>
        <parking>
            <direccion>Cl. Alemania,16</direccion>
            <longitud>-4.4244989</longitud>
            <latitud>36.7128484</latitud>
        </parking>
        <parking>
            <direccion>Cl. Altozano,17</direccion>
            <longitud>-4.41523388</longitud>
            <latitud>36.72687698</latitud>
        </parking>
        <parking>
            <direccion>Cl. Atarazanas,15</direccion>
            <longitud>-4.42409791</longitud>
            <latitud>36.71806722</latitud>
        </parking>
        <parking>
            <direccion>Cl. Ayala,94</direccion>
            <longitud>-4.4369638</longitud>
            <latitud>36.70462786</latitud>
        </parking>
        <parking>
            <direccion>Cl. Conde de Ureña,72</direccion>
            <longitud>-4.40925926</longitud>
            <latitud>36.72912723</latitud>
        </parking>
        <parking>
            <direccion>Cl. Compositor Lehmberg Ruiz,34</direccion>
            <longitud>-4.43524249</longitud>
            <latitud>36.71898689</latitud>
        </parking>
        <parking>
            <direccion>Cl. Constancia,9</direccion>
            <longitud>-4.42746677</longitud>
            <latitud>36.71249093</latitud>
        </parking>
        <parking>
            <direccion>Cl. Postigo de los Abades,6</direccion>
            <longitud>-4.41876367</longitud>
            <latitud>36.71958351</latitud>
        </parking>
        <parking>
            <direccion>Cl. Cuarteles,33</direccion>
            <longitud>-4.42851484</longitud>
            <latitud>36.71335154</latitud>
        </parking>
        <parking>
            <direccion>Cl. Don Juan de Austria,33</direccion>
            <longitud>-4.42877166</longitud>
            <latitud>36.72584293</latitud>
        </parking>
        <parking>
            <direccion>Cl. Duque de Rivas,25</direccion>
            <longitud>-4.42431919</longitud>
            <latitud>36.72869728</latitud>
        </parking>
        <parking>
            <direccion>Cl. Duquesa de Parcent,14</direccion>
            <longitud>-4.42412205</longitud>
            <latitud>36.71392939</latitud>
        </parking>
        <parking>
            <direccion>Cl. Esperanto,9</direccion>
            <longitud>-4.43177439</longitud>
            <latitud>36.7186918</latitud>
        </parking>
        <parking>
            <direccion>Cl. Ferrándiz,35</direccion>
            <longitud>-4.41075996</longitud>
            <latitud>36.72729027</latitud>
        </parking>
        <parking>
            <direccion>Cl. Gómez Pallete,5</direccion>
            <longitud>-4.41780478</longitud>
            <latitud>36.72403116</latitud>
        </parking>
        <parking>
            <direccion>Cl. Góngora,26</direccion>
            <longitud>-4.42993574</longitud>
            <latitud>36.7092828</latitud>
        </parking>
        <parking>
            <direccion>Cl. Juan del Encina,28</direccion>
            <longitud>-4.42297675</longitud>
            <latitud>36.72892891</latitud>
        </parking>
        <parking>
            <direccion>Cl. Lagunillas,2</direccion>
            <longitud>-4.41523522</longitud>
            <latitud>36.72623365</latitud>
        </parking>
        <parking>
            <direccion>Cl. Malpica,7</direccion>
            <longitud>-4.42918405</longitud>
            <latitud>36.71467978</latitud>
        </parking>
        <parking>
            <direccion>Cl. Manrique,18</direccion>
            <longitud>-4.41562414</longitud>
            <latitud>36.73003279</latitud>
        </parking>
        <parking>
            <direccion>Cl. Marmolista,10</direccion>
            <longitud>-4.41740446</longitud>
            <latitud>36.73586736</latitud>
        </parking>
        <parking>
            <direccion>Cl. Montalbán,4</direccion>
            <longitud>-4.42871332</longitud>
            <latitud>36.71511142</latitud>
        </parking>
        <parking>
            <direccion>Cl. Montes de Oca,20</direccion>
            <longitud>-4.43016507</longitud>
            <latitud>36.71950557</latitud>
        </parking>
        <parking>
            <direccion>Cl. Peso de la Harina,9</direccion>
            <longitud>-4.43218477</longitud>
            <latitud>36.72000867</latitud>
        </parking>
        <parking>
            <direccion>Cl. Rojas,33</direccion>
            <longitud>-4.42026637</longitud>
            <latitud>36.73234851</latitud>
        </parking>
        <parking>
            <direccion>Cl. Salitre,51</direccion>
            <longitud>-4.42930475</longitud>
            <latitud>36.7116701</latitud>
        </parking>
        <parking>
            <direccion>Cl. San Jacinto,5</direccion>
            <longitud>-4.42714222</longitud>
            <latitud>36.71863751</latitud>
        </parking>
        <parking>
            <direccion>Cl. San Millán,4</direccion>
            <longitud>-4.42016244</longitud>
            <latitud>36.72745258</latitud>
        </parking>
        <parking>
            <direccion>Cl. Capulino Jauregui,6</direccion>
            <longitud>-4.43531692</longitud>
            <latitud>36.7053262</latitud>
        </parking>
        <parking>
            <direccion>Cl. Carlos Triviño Moreno,3</direccion>
            <longitud>-4.44359</longitud>
            <latitud>36.70062304</latitud>
        </parking>
        <parking>
            <direccion>Cl. Carpio ,22-24</direccion>
            <longitud>-4.43959236</longitud>
            <latitud>36.70333115</latitud>
        </parking>
        <parking>
            <direccion>Cl. Chico del Matadero,1</direccion>
            <longitud>-4.45507675</longitud>
            <latitud>36.69325892</latitud>
        </parking>
        <parking>
            <direccion>Cl. Emilio Prados,2</direccion>
            <longitud>-4.4450815</longitud>
            <latitud>36.69857155</latitud>
        </parking>
        <parking>
            <direccion>Cl. Eva,2</direccion>
            <longitud>-4.45377924</longitud>
            <latitud>36.69870811</latitud>
        </parking>
        <parking>
            <direccion>Cl. Francisco de Cossio,8</direccion>
            <longitud>-4.444248</longitud>
            <latitud>36.69161004</latitud>
        </parking>
        <parking>
            <direccion>Cl. Francisco Pacheco,15</direccion>
            <longitud>-4.44784498</longitud>
            <latitud>36.69188312</latitud>
        </parking>
        <parking>
            <direccion>Cl. Francisco Padilla,17</direccion>
            <longitud>-4.44750404</longitud>
            <latitud>36.69250492</latitud>
        </parking>
        <parking>
            <direccion>Cl. Garcerán,62</direccion>
            <longitud>-4.43713522</longitud>
            <latitud>36.70264438</latitud>
        </parking>
        <parking>
            <direccion>Cl. Garcerán,30</direccion>
            <longitud>-4.43645485</longitud>
            <latitud>36.70213389</latitud>
        </parking>
        <parking>
            <direccion>Cl. Gaucín,26</direccion>
            <longitud>-4.45062831</longitud>
            <latitud>36.69901457</latitud>
        </parking>
        <parking>
            <direccion>Cl. Guillermo Carrera Rubio,9</direccion>
            <longitud>-4.4451794</longitud>
            <latitud>36.69464505</latitud>
        </parking>
        <parking>
            <direccion>Cl. Guillermo Carrera Rubio,6</direccion>
            <longitud>-4.445292</longitud>
            <latitud>36.69531254</latitud>
        </parking>
        <parking>
            <direccion>Cl. Héroe de Sostoa,130</direccion>
            <longitud>-4.43876289</longitud>
            <latitud>36.70529125</latitud>
        </parking>
        <parking>
            <direccion>Cl. Héroe de Sostoa,161</direccion>
            <longitud>-4.44348559</longitud>
            <latitud>36.70134681</latitud>
        </parking>
        <parking>
            <direccion>Cl. Héroe de Sostoa,139</direccion>
            <longitud>-4.44178373</longitud>
            <latitud>36.70290644</latitud>
        </parking>
        <parking>
            <direccion>Cl. Ildefonso Marzo,18</direccion>
            <longitud>-4.44675185</longitud>
            <latitud>36.69717958</latitud>
        </parking>
        <parking>
            <direccion>Cl. Joaquín Rodrigo,4</direccion>
            <longitud>-4.44913231</longitud>
            <latitud>36.69419878</latitud>
        </parking>
        <parking>
            <direccion>Cl. José Crooke,4</direccion>
            <longitud>-4.44320664</longitud>
            <latitud>36.70078876</latitud>
        </parking>
        <parking>
            <direccion>Cl. Júcar,10</direccion>
            <longitud>-4.44913566</longitud>
            <latitud>36.69572791</latitud>
        </parking>
        <parking>
            <direccion>Cl. Manuel Altolaguirre,12</direccion>
            <longitud>-4.44459468</longitud>
            <latitud>36.69731561</latitud>
        </parking>
        <parking>
            <direccion>Cl. Moreti,2</direccion>
            <longitud>-4.44650173</longitud>
            <latitud>36.69901242</latitud>
        </parking>
        <parking>
            <direccion>Cl. Muñoz Degrain,2</direccion>
            <longitud>-4.43508625</longitud>
            <latitud>36.70541385</latitud>
        </parking>
        <parking>
            <direccion>Cl. Muñoz Degrain,s/n</direccion>
            <longitud>-4.43494654</longitud>
            <latitud>36.70557789</latitud>
        </parking>
        <parking>
            <direccion>Cl. Niño de Gloria,3-7</direccion>
            <longitud>-4.44875211</longitud>
            <latitud>36.70071295</latitud>
        </parking>
        <parking>
            <direccion>Cl. Niño del Museo,8</direccion>
            <longitud>-4.44825724</longitud>
            <latitud>36.69965436</latitud>
        </parking>
        <parking>
            <direccion>Cl. Pacífico,s/n</direccion>
            <longitud>-4.44366932</longitud>
            <latitud>36.68968967</latitud>
        </parking>
        <parking>
            <direccion>Cl. Pintor José de Ribera,22</direccion>
            <longitud>-4.44417894</longitud>
            <latitud>36.69664032</latitud>
        </parking>
        <parking>
            <direccion>Cl. Princesa,42</direccion>
            <longitud>-4.43811446</longitud>
            <latitud>36.70134036</latitud>
        </parking>
        <parking>
            <direccion>Cl. Sargento Crooke López,10</direccion>
            <longitud>-4.44039679</longitud>
            <latitud>36.70138935</latitud>
        </parking>
        <parking>
            <direccion>Cl. La Unión Mercantil ,0</direccion>
            <longitud>-4.45272112</longitud>
            <latitud>36.68419269</latitud>
        </parking>
        <parking>
            <direccion>Cl. Vázquez Claver,1</direccion>
            <longitud>-4.44756322</longitud>
            <latitud>36.69813391</latitud>
        </parking>
        <parking>
            <direccion>Cl. Vicente Aleixandre,15</direccion>
            <longitud>-4.44311075</longitud>
            <latitud>36.69961672</latitud>
        </parking>
        <parking>
            <direccion>Cl. Miguel de Merida Nicolich,s/n</direccion>
            <longitud>-4.45986986</longitud>
            <latitud>36.68168773</latitud>
        </parking>
        <parking>
            <direccion>Cmno. del Pato,32</direccion>
            <longitud>-4.45262924</longitud>
            <latitud>36.68779107</latitud>
        </parking>
        <parking>
            <direccion>Carril del Conde,12</direccion>
            <longitud>-4.45333533</longitud>
            <latitud>36.69545854</latitud>
        </parking>
        <parking>
            <direccion>Carril de la Cordobesa,13</direccion>
            <longitud>-4.43938248</longitud>
            <latitud>36.70644116</latitud>
        </parking>
        <parking>
            <direccion>Av. Antonio Gaudí,s/n</direccion>
            <longitud>-4.45658617</longitud>
            <latitud>36.69714603</latitud>
        </parking>
        <parking>
            <direccion>Pso. Tanima,1</direccion>
            <longitud>-4.4480896</longitud>
            <latitud>36.67850498</latitud>
        </parking>
        <parking>
            <direccion>Cl. Acacias de Guadalmar,17</direccion>
            <longitud>-4.46173906</longitud>
            <latitud>36.6659737</latitud>
        </parking>
        <parking>
            <direccion>Cl. Ignacio Sánchez Mejías,3</direccion>
            <longitud>-4.54540014</longitud>
            <latitud>36.7281147</latitud>
        </parking>
        <parking>
            <direccion>Cl. Acacias de Guadalmar,2</direccion>
            <longitud>-4.45643798</longitud>
            <latitud>36.66413537</latitud>
        </parking>
        <parking>
            <direccion>Cl. Maestro Usandizaga,17</direccion>
            <longitud>-4.50418377</longitud>
            <latitud>36.66262058</latitud>
        </parking>
        <parking>
            <direccion>Cl. Tomás Echevarría,6</direccion>
            <longitud>-4.43486214</longitud>
            <latitud>36.70379642</latitud>
        </parking>
        <parking>
            <direccion>Pl. Inmaculada,s/n</direccion>
            <longitud>-4.50278521</longitud>
            <latitud>36.66953663</latitud>
        </parking>
        <parking>
            <direccion>Cl. José Calderón,147</direccion>
            <longitud>-4.54378009</longitud>
            <latitud>36.72728973</latitud>
        </parking>
        <parking>
            <direccion>Cl. Salino,11-13</direccion>
            <longitud>-4.50600185</longitud>
            <latitud>36.70552564</latitud>
        </parking>
        <parking>
            <direccion>Cno. Martínez,21</direccion>
            <longitud>-4.54184018</longitud>
            <latitud>36.72467127</latitud>
        </parking>
        <parking>
            <direccion>Pl. Nazaret,4</direccion>
            <longitud>-4.42019194</longitud>
            <latitud>36.73843493</latitud>
        </parking>
        <parking>
            <direccion>Cl. Fausto,45</direccion>
            <longitud>-4.55087185</longitud>
            <latitud>36.72684634</latitud>
        </parking>
        <parking>
            <direccion>Cl. Mendívil,8</direccion>
            <longitud>-4.43205267</longitud>
            <latitud>36.71282528</latitud>
        </parking>
        <parking>
            <direccion>Cl. Principal de Colmenarejo,12</direccion>
            <longitud>-4.53247659</longitud>
            <latitud>36.73268438</latitud>
        </parking>
        <parking>
            <direccion>Cl. Jacob,23</direccion>
            <longitud>-4.54907477</longitud>
            <latitud>36.72767615</latitud>
        </parking>
        <parking>
            <direccion>Cl. Emilio Thuillier,114</direccion>
            <longitud>-4.42168929</longitud>
            <latitud>36.7475298</latitud>
        </parking>
        <parking>
            <direccion>Cl. Rotonda de Suárez,5</direccion>
            <longitud>-4.44312148</longitud>
            <latitud>36.72925567</latitud>
        </parking>
        <parking>
            <direccion>Cl. Penélope,57</direccion>
            <longitud>-4.54973996</longitud>
            <latitud>36.72790027</latitud>
        </parking>
        <parking>
            <direccion>Cl. Lara Castañeda,15</direccion>
            <longitud>-4.48032573</longitud>
            <latitud>36.73576418</latitud>
        </parking>
        <parking>
            <direccion>Cl. Virgen de la Paloma,41</direccion>
            <longitud>-4.44442905</longitud>
            <latitud>36.71762055</latitud>
        </parking>
        <parking>
            <direccion>Cl. Idris,2</direccion>
            <longitud>-4.39671524</longitud>
            <latitud>36.72330611</latitud>
        </parking>
        <parking>
            <direccion>Av. Salvador Allende,9</direccion>
            <longitud>-4.3648392</longitud>
            <latitud>36.71981302</latitud>
        </parking>
        <parking>
            <direccion>Cl. Dolores Ibárruri,31</direccion>
            <longitud>-4.46415469</longitud>
            <latitud>36.6959704</latitud>
        </parking>
        <parking>
            <direccion>Av. Europa,89</direccion>
            <longitud>-4.45133775</longitud>
            <latitud>36.70049736</latitud>
        </parking>
        <parking>
            <direccion>Av. de Bonaire,3</direccion>
            <longitud>-4.45428483</longitud>
            <latitud>36.6949784</latitud>
        </parking>
        <parking>
            <direccion>Cl. Antonio Chacón,17</direccion>
            <longitud>-4.44928855</longitud>
            <latitud>36.70002963</latitud>
        </parking>
        <parking>
            <direccion>Cl. Deva,1</direccion>
            <longitud>-4.4321056</longitud>
            <latitud>36.73872844</latitud>
        </parking>
        <parking>
            <direccion>Av. Doctor Galvez Ginachero,9</direccion>
            <longitud>-4.42782015</longitud>
            <latitud>36.72681947</latitud>
        </parking>
        <parking>
            <direccion>Cl. Tambre,37</direccion>
            <longitud>-4.4529397</longitud>
            <latitud>36.73395426</latitud>
        </parking>
        <parking>
            <direccion>Cl. Arenal,5</direccion>
            <longitud>-4.41012564</longitud>
            <latitud>36.71911855</latitud>
        </parking>
        <parking>
            <direccion>Cl. Pedro Espinosa,2</direccion>
            <longitud>-4.45022799</longitud>
            <latitud>36.7226547</latitud>
        </parking>
        <parking>
            <direccion>Cl. Eugenio Gross,</direccion>
            <longitud>-4.43496823</longitud>
            <latitud>36.72641639</latitud>
        </parking>
        <parking>
            <direccion>Cl. Carcer,8</direccion>
            <longitud>-4.41958174</longitud>
            <latitud>36.72382746</latitud>
        </parking>
        <parking>
            <direccion>Cl. Edison,10</direccion>
            <longitud>-4.43558179</longitud>
            <latitud>36.71237375</latitud>
        </parking>
        <parking>
            <direccion>Cl. Corregidor Nicolás Isidro,23</direccion>
            <longitud>-4.45353314</longitud>
            <latitud>36.71493834</latitud>
        </parking>
        <parking>
            <direccion>Cl. Corregidor Nicolás Isidro,23</direccion>
            <longitud>-4.45353113</longitud>
            <latitud>36.71494264</latitud>
        </parking>
        <parking>
            <direccion>Pl. General Torrijos,2</direccion>
            <longitud>-4.41221237</longitud>
            <latitud>36.72058593</latitud>
        </parking>
        <parking>
            <direccion>Cl. Nemoroso,34</direccion>
            <longitud>-4.5064119</longitud>
            <latitud>36.70437884</latitud>
        </parking>
        <parking>
            <direccion>Cl. Nuestra Señora de los Clarines,18</direccion>
            <longitud>-4.43836793</longitud>
            <latitud>36.73094801</latitud>
        </parking>
        <parking>
            <direccion>Cl. Bolivia,153</direccion>
            <longitud>-4.36971545</longitud>
            <latitud>36.72042254</latitud>
        </parking>
        <parking>
            <direccion>Paseo Antonio Machado,62</direccion>
            <longitud>-4.43357348</longitud>
            <latitud>36.70279086</latitud>
        </parking>
        <parking>
            <direccion>Pasaje de los Almendrales,0</direccion>
            <longitud>-4.41024899</longitud>
            <latitud>36.73471628</latitud>
        </parking>
        <parking>
            <direccion>Pl. Virgen Milagrosa,5</direccion>
            <longitud>-4.36400235</longitud>
            <latitud>36.71944645</latitud>
        </parking>
        <parking>
            <direccion>Cl. Conde de Ureña,25</direccion>
            <longitud>-4.41106707</longitud>
            <latitud>36.72960016</latitud>
        </parking>
        <parking>
            <direccion>Cl. Currito de la Cruz,10</direccion>
            <longitud>-4.45204586</longitud>
            <latitud>36.69752099</latitud>
        </parking>
        <parking>
            <direccion>Cno. de los Almendrales,9</direccion>
            <longitud>-4.41253155</longitud>
            <latitud>36.73478722</latitud>
        </parking>
        <parking>
            <direccion>Cl. Frailes,4</direccion>
            <longitud>-4.41741183</longitud>
            <latitud>36.72446919</latitud>
        </parking>
        <parking>
            <direccion>Av. Sor Teresa Prat,17</direccion>
            <longitud>-4.44043189</longitud>
            <latitud>36.69868123</latitud>
        </parking>
        <parking>
            <direccion>Cno. del Pilar,43</direccion>
            <longitud>-4.50574435</longitud>
            <latitud>36.65719099</latitud>
        </parking>
        <parking>
            <direccion>Cl. Líbar,2</direccion>
            <longitud>-4.44947764</longitud>
            <latitud>36.68720173</latitud>
        </parking>
        <parking>
            <direccion>Camino del Pato,8</direccion>
            <longitud>-4.45046604</longitud>
            <latitud>36.69101623</latitud>
        </parking>
        <parking>
            <direccion>Cl. Luis Francisco Pallardo Peinado,2A</direccion>
            <longitud>-4.44908738</longitud>
            <latitud>36.7161526</latitud>
        </parking>
        <parking>
            <direccion>Cl. Carretería,16</direccion>
            <longitud>-4.42479461</longitud>
            <latitud>36.72194254</latitud>
        </parking>
        <parking>
            <direccion>Cl. de Itaca,s/n</direccion>
            <longitud>-4.56630059</longitud>
            <latitud>36.73179874</latitud>
        </parking>
        <parking>
            <direccion>Av. Velázquez,8</direccion>
            <longitud>-4.44611013</longitud>
            <latitud>36.69996941</latitud>
        </parking>
        <parking>
            <direccion>Cl. Virgen de la Esperanza,1</direccion>
            <longitud>-4.44636025</longitud>
            <latitud>36.71873803</latitud>
        </parking>
        <parking>
            <direccion>Camino Gibralfaro,s/n</direccion>
            <longitud>-4.41053599</longitud>
            <latitud>36.72328408</latitud>
        </parking>
        <parking>
            <direccion>Cl. Francisco Bejarano Robles,2</direccion>
            <longitud>-4.41528954</longitud>
            <latitud>36.72001136</latitud>
        </parking>
        <parking>
            <direccion>Av. Andersen,1</direccion>
            <longitud>-4.48164672</longitud>
            <latitud>36.73777289</latitud>
        </parking>
        <parking>
            <direccion>Av. José Ribera,4</direccion>
            <longitud>-4.47224617</longitud>
            <latitud>36.7215958</latitud>
        </parking>
        <parking>
            <direccion>Cl. Aristófanes,9</direccion>
            <longitud>-4.48231526</longitud>
            <latitud>36.72177807</latitud>
        </parking>
        <parking>
            <direccion>Cl. Atabalero,1</direccion>
            <longitud>-4.47082901</longitud>
            <latitud>36.73128895</latitud>
        </parking>
        <parking>
            <direccion>Cl. Muñoz Cerisola,22</direccion>
            <longitud>-4.46802981</longitud>
            <latitud>36.72552046</latitud>
        </parking>
        <parking>
            <direccion>Cno. Santa Inés,1</direccion>
            <longitud>-4.51661132</longitud>
            <latitud>36.72145021</latitud>
        </parking>
        <parking>
            <direccion>Cl. Tamayo y Baus,s/n</direccion>
            <longitud>-4.46708232</longitud>
            <latitud>36.72888216</latitud>
        </parking>
        <parking>
            <direccion>Cl. Víctor Hugo,20</direccion>
            <longitud>-4.48170036</longitud>
            <latitud>36.73681852</latitud>
        </parking>
        <parking>
            <direccion>Av. Nehemías,3</direccion>
            <longitud>-4.45523366</longitud>
            <latitud>36.70513911</latitud>
        </parking>
        <parking>
            <direccion>Bv Louis Pasteur,0</direccion>
            <longitud>-4.47396219</longitud>
            <latitud>36.71688255</latitud>
        </parking>
        <parking>
            <direccion>Av. Pries,6</direccion>
            <longitud>-4.40722883</longitud>
            <latitud>36.72103527</latitud>
        </parking>
        <parking>
            <direccion>Cl. Virgen de la Estrella,17</direccion>
            <longitud>-4.44284052</longitud>
            <latitud>36.71525386</latitud>
        </parking>
        <parking>
            <direccion>Pl. José Bergamín,4</direccion>
            <longitud>-4.45495605</longitud>
            <latitud>36.71893475</latitud>
        </parking>
        <parking>
            <direccion>Cl. Periana,</direccion>
            <longitud>-4.44756187</longitud>
            <latitud>36.70898821</latitud>
        </parking>
        <parking>
            <direccion>Cl. Eduardo Torres Roybon,3</direccion>
            <longitud>-4.443382</longitud>
            <latitud>36.70802374</latitud>
        </parking>
        <parking>
            <direccion>Glorieta Bernabé Fernández Canivell,28</direccion>
            <longitud>-4.40339126</longitud>
            <latitud>36.73295523</latitud>
        </parking>
        <parking>
            <direccion>Cl. Paul Valery,2</direccion>
            <longitud>-4.45423052</longitud>
            <latitud>36.68925149</latitud>
        </parking>
        <parking>
            <direccion>Av. Virgen de Belén,8</direccion>
            <longitud>-4.4555341</longitud>
            <latitud>36.69408904</latitud>
        </parking>
        <parking>
            <direccion>Av. Isaac Peral,17</direccion>
            <longitud>-4.45607722</longitud>
            <latitud>36.69606879</latitud>
        </parking>
        <parking>
            <direccion>Cl. Marruecos,1</direccion>
            <longitud>-4.42160559</longitud>
            <latitud>36.73195652</latitud>
        </parking>
        <parking>
            <direccion>Cl. Moya,21</direccion>
            <longitud>-4.42050844</longitud>
            <latitud>36.7329246</latitud>
        </parking>
        <parking>
            <direccion>Cl. Malasaña,23</direccion>
            <longitud>-4.42748688</longitud>
            <latitud>36.72456163</latitud>
        </parking>
        <parking>
            <direccion>Cl. Manuel de Falla,2</direccion>
            <longitud>-4.4499002</longitud>
            <latitud>36.69461044</latitud>
        </parking>
        <parking>
            <direccion>Av. Juan Sebastian Elcano,197</direccion>
            <longitud>-4.36087891</longitud>
            <latitud>36.72107935</latitud>
        </parking>
        <parking>
            <direccion>Cl. Eugenio Selles,44</direccion>
            <longitud>-4.36643243</longitud>
            <latitud>36.72136421</latitud>
        </parking>
        <parking>
            <direccion>Cl. Rivas Fernández,6</direccion>
            <longitud>-4.4372564</longitud>
            <latitud>36.72475684</latitud>
        </parking>
        <parking>
            <direccion>Cl. Emilio Orejón,2</direccion>
            <longitud>-4.42245573</longitud>
            <latitud>36.74165796</latitud>
        </parking>
        <parking>
            <direccion>Av. José Ortega y Gasset,52</direccion>
            <longitud>-4.44891304</longitud>
            <latitud>36.71086484</latitud>
        </parking>
        <parking>
            <direccion>Cl. Soliva,30</direccion>
            <longitud>-4.45328973</longitud>
            <latitud>36.72011724</latitud>
        </parking>
        <parking>
            <direccion>Cl. Francisco Jiménez Lomas,9</direccion>
            <longitud>-4.44566488</longitud>
            <latitud>36.69445525</latitud>
        </parking>
        <parking>
            <direccion>Cl. Pacheco,21</direccion>
            <longitud>-4.43741105</longitud>
            <latitud>36.73041812</latitud>
        </parking>
        <parking>
            <direccion>Cl. Jacob,21</direccion>
            <longitud>-4.5491116</longitud>
            <latitud>36.72598434</latitud>
        </parking>
        <parking>
            <direccion>Cl. París,1</direccion>
            <longitud>-4.47261035</longitud>
            <latitud>36.69903823</latitud>
        </parking>
        <parking>
            <direccion>Cl. Driza,2</direccion>
            <longitud>-4.47565399</longitud>
            <latitud>36.69879145</latitud>
        </parking>
        <parking>
            <direccion>Cl. Núñez Vela,36</direccion>
            <longitud>-4.44945887</longitud>
            <latitud>36.72628149</latitud>
        </parking>
        <parking>
            <direccion>Pso. de Sancha,67</direccion>
            <longitud>-4.3982941</longitud>
            <latitud>36.72287014</latitud>
        </parking>
        <parking>
            <direccion>Cl. Decano Eduardo Palanca,6</direccion>
            <longitud>-4.51343626</longitud>
            <latitud>36.66881912</latitud>
        </parking>
        <parking>
            <direccion>Cl. Monsálvez,s/n</direccion>
            <longitud>-4.5011571</longitud>
            <latitud>36.66786873</latitud>
        </parking>
        <parking>
            <direccion>Cl. Lomita,s/n</direccion>
            <longitud>-4.5017311</longitud>
            <latitud>36.66732226</latitud>
        </parking>
        <parking>
            <direccion>Cl. Amador de los Ríos,8</direccion>
            <longitud>-4.36937213</longitud>
            <latitud>36.72352271</latitud>
        </parking>
        <parking>
            <direccion>Pl. de la Solidaridad ,6</direccion>
            <longitud>-4.432109</longitud>
            <latitud>36.71418687</latitud>
        </parking>
        <parking>
            <direccion>Av. de la Rosaleda,11</direccion>
            <longitud>-4.42538738</longitud>
            <latitud>36.72405588</latitud>
        </parking>
        <parking>
            <direccion>Paseo Antonio Machado,s/n</direccion>
            <longitud>-4.4315137</longitud>
            <latitud>36.70538164</latitud>
        </parking>
        <parking>
            <direccion>Av. de Fátima,23</direccion>
            <longitud>-4.426644</longitud>
            <latitud>36.72595364</latitud>
        </parking>
        <parking>
            <direccion>Cl. San Millán ,9</direccion>
            <longitud>-4.42025632</longitud>
            <latitud>36.72741388</latitud>
        </parking>
        <parking>
            <direccion>Cl. Enrique de Egas,31</direccion>
            <longitud>-4.44127142</longitud>
            <latitud>36.728923</latitud>
        </parking>
        <parking>
            <direccion>Cl. Morritos Altos,12</direccion>
            <longitud>-4.41676676</longitud>
            <latitud>36.74189117</latitud>
        </parking>
        <parking>
            <direccion>Cl. Pintor Ramos Rosas,5</direccion>
            <longitud>-4.417949</longitud>
            <latitud>36.74968474</latitud>
        </parking>
        <parking>
            <direccion>Cl. Edwar Elgar,6</direccion>
            <longitud>-4.4347325</longitud>
            <latitud>36.70936514</latitud>
        </parking>
        <parking>
            <direccion>Cl. Armijo,10</direccion>
            <longitud>-4.41849947</longitud>
            <latitud>36.74124851</latitud>
        </parking>
        <parking>
            <direccion>Av. Imperio Argentina,5</direccion>
            <longitud>-4.45701599</longitud>
            <latitud>36.68374517</latitud>
        </parking>
        <parking>
            <direccion>Cl. Donoso Cortés,13</direccion>
            <longitud>-4.42857385</longitud>
            <latitud>36.70998163</latitud>
        </parking>
        <parking>
            <direccion>Cl. Uranio,86</direccion>
            <longitud>-4.48770583</longitud>
            <latitud>36.74443893</latitud>
        </parking>
        <parking>
            <direccion>Cl. Rafaela,45</direccion>
            <longitud>-4.43561599</longitud>
            <latitud>36.72450735</latitud>
        </parking>
        <parking>
            <direccion>Paseo de Martirícos,22</direccion>
            <longitud>-4.42695111</longitud>
            <latitud>36.72986619</latitud>
        </parking>
        <parking>
            <direccion>Cl. Venezuela,14</direccion>
            <longitud>-4.36787277</longitud>
            <latitud>36.72135346</latitud>
        </parking>
        <parking>
            <direccion>Av. del Mayorazgo,19</direccion>
            <longitud>-4.39682588</longitud>
            <latitud>36.73118018</latitud>
        </parking>
        <parking>
            <direccion>Cl. Santa Marta,7</direccion>
            <longitud>-4.44084898</longitud>
            <latitud>36.71182545</latitud>
        </parking>
        <parking>
            <direccion>Cl. Alcalde Díaz Zafra,22</direccion>
            <longitud>-4.4511909</longitud>
            <latitud>36.71004775</latitud>
        </parking>
        <parking>
            <direccion>Av. Parménides,2</direccion>
            <longitud>-4.48006153</longitud>
            <latitud>36.72435256</latitud>
        </parking>
        <parking>
            <direccion>Cl. Alpargaterito,3</direccion>
            <longitud>-4.45113659</longitud>
            <latitud>36.70114789</latitud>
        </parking>
        <parking>
            <direccion>Av. Juan XXIII,47</direccion>
            <longitud>-4.44541141</longitud>
            <latitud>36.71039394</latitud>
        </parking>
        <parking>
            <direccion>Cl. Helsinki,36-38</direccion>
            <longitud>-4.54740509</longitud>
            <latitud>36.72499536</latitud>
        </parking>
        <parking>
            <direccion>Cl. Antonio Martelo,26</direccion>
            <longitud>-4.44167174</longitud>
            <latitud>36.71154108</latitud>
        </parking>
        <parking>
            <direccion>Av. Guerrero Strachan,</direccion>
            <longitud>-4.42436814</longitud>
            <latitud>36.7375386</latitud>
        </parking>
        <parking>
            <direccion>Av. Atabal,2</direccion>
            <longitud>-4.46998984</longitud>
            <latitud>36.73128981</latitud>
        </parking>
        <parking>
            <direccion>Cl. Eugenio Gross,29</direccion>
            <longitud>-4.43535917</longitud>
            <latitud>36.7255828</latitud>
        </parking>
        <parking>
            <direccion>Cl. Lili Alvarez,5</direccion>
            <longitud>-4.4569611</longitud>
            <latitud>36.68483124</latitud>
        </parking>
        <parking>
            <direccion>Cl. Beethoven,3</direccion>
            <longitud>-4.45092201</longitud>
            <latitud>36.69488539</latitud>
        </parking>
        <parking>
            <direccion>Cl. Currito de la Cruz,s/n</direccion>
            <longitud>-4.45222557</longitud>
            <latitud>36.69753497</latitud>
        </parking>
        <parking>
            <direccion>Cl. Lorenzo Silva,11</direccion>
            <longitud>-4.44036819</longitud>
            <latitud>36.72637877</latitud>
        </parking>
        <parking>
            <direccion>Cl. Mesonero Romanos,2</direccion>
            <longitud>-4.46125254</longitud>
            <latitud>36.72555808</latitud>
        </parking>
        <parking>
            <direccion>Cl. José Carmona,6</direccion>
            <longitud>-4.4666687</longitud>
            <latitud>36.72420494</latitud>
        </parking>
        <parking>
            <direccion>Cl. Barca,7</direccion>
            <longitud>-4.437804</longitud>
            <latitud>36.73134624</latitud>
        </parking>
        <parking>
            <direccion>Av. Lope de Vega,12</direccion>
            <longitud>-4.46947217</longitud>
            <latitud>36.73142954</latitud>
        </parking>
        <parking>
            <direccion>Cl. Corregidor Francisco de Luján,6</direccion>
            <longitud>-4.4514893</longitud>
            <latitud>36.71106857</latitud>
        </parking>
        <parking>
            <direccion>Cl. Carratraca,21</direccion>
            <longitud>-4.45434988</longitud>
            <latitud>36.70870222</latitud>
        </parking>
        <parking>
            <direccion>Cl. La Unión,66</direccion>
            <longitud>-4.44283314</longitud>
            <latitud>36.70930053</latitud>
        </parking>
        <parking>
            <direccion>Cl. Borde Alegre,4</direccion>
            <longitud>-4.4212299</longitud>
            <latitud>36.75022164</latitud>
        </parking>
        <parking>
            <direccion>Cl. Lope de Rueda,145</direccion>
            <longitud>-4.48697962</longitud>
            <latitud>36.74064829</latitud>
        </parking>
        <parking>
            <direccion>Av. Gregorio Prieto,10</direccion>
            <longitud>-4.46346939</longitud>
            <latitud>36.7150152</latitud>
        </parking>
        <parking>
            <direccion>Cl. Cristo de la Epidemia,92</direccion>
            <longitud>-4.41546723</longitud>
            <latitud>36.7325409</latitud>
        </parking>
        <parking>
            <direccion>Cl. San Andrés,7</direccion>
            <longitud>-4.42652531</longitud>
            <latitud>36.71381221</latitud>
        </parking>
        <parking>
            <direccion>Cl. Moreno Nieto,26</direccion>
            <longitud>-4.43898685</longitud>
            <latitud>36.72995002</latitud>
        </parking>
        <parking>
            <direccion>Cl. Martínez de la Rosa,111 y 113</direccion>
            <longitud>-4.4394388</longitud>
            <latitud>36.72678776</latitud>
        </parking>
        <parking>
            <direccion>Av. Hernán Nuñez de Toledo,1 A</direccion>
            <longitud>-4.36812758</longitud>
            <latitud>36.72828883</latitud>
        </parking>
        <parking>
            <direccion>Cl. Corregidor Nicolás Isidro,10</direccion>
            <longitud>-4.45261717</longitud>
            <latitud>36.7149765</latitud>
        </parking>
        <parking>
            <direccion>Cl. Guillermo Lee,8</direccion>
            <longitud>-4.49295759</longitud>
            <latitud>36.7050617</latitud>
        </parking>
        <parking>
            <direccion>Cl. Francisco Pacheco,7</direccion>
            <longitud>-4.44675386</longitud>
            <latitud>36.69145284</latitud>
        </parking>
        <parking>
            <direccion>Cl. José Calderón,125</direccion>
            <longitud>-4.5427803</longitud>
            <latitud>36.72665555</latitud>
        </parking>
        <parking>
            <direccion>Cl. Pedro Cevallos,9</direccion>
            <longitud>-4.542378</longitud>
            <latitud>36.72535014</latitud>
        </parking>
        <parking>
            <direccion>Cl. Rojas Clemente,26</direccion>
            <longitud>-4.42081019</longitud>
            <latitud>36.73030204</latitud>
        </parking>
        <parking>
            <direccion>Cl. Las Moreras,</direccion>
            <longitud>-4.41714764</longitud>
            <latitud>36.74372455</latitud>
        </parking>
        <parking>
            <direccion>Cl. Mora y Cabrera,2</direccion>
            <longitud>-4.48081322</longitud>
            <latitud>36.73259894</latitud>
        </parking>
        <parking>
            <direccion>Paseo los Tilos,65</direccion>
            <longitud>-4.4397828</longitud>
            <latitud>36.71213185</latitud>
        </parking>
        <parking>
            <direccion>Cl. Río Tavora,6</direccion>
            <longitud>-4.45394956</longitud>
            <latitud>36.71208616</latitud>
        </parking>
        <parking>
            <direccion>Cl. Mauricio Moro Pareto,7</direccion>
            <longitud>-4.43513989</longitud>
            <latitud>36.71442607</latitud>
        </parking>
        <parking>
            <direccion>Cl. La Unión,24</direccion>
            <longitud>-4.4369819</longitud>
            <latitud>36.71163999</latitud>
        </parking>
        <parking>
            <direccion>Cl. Záncara,2</direccion>
            <longitud>-4.44396034</longitud>
            <latitud>36.71313921</latitud>
        </parking>
        <parking>
            <direccion>Cl. San Patricio,8</direccion>
            <longitud>-4.41408858</longitud>
            <latitud>36.72866181</latitud>
        </parking>
        <parking>
            <direccion>Cl. Sevilla,32</direccion>
            <longitud>-4.42947306</longitud>
            <latitud>36.72594934</latitud>
        </parking>
        <parking>
            <direccion>Cl. Somera,14</direccion>
            <longitud>-4.4232168</longitud>
            <latitud>36.71479643</latitud>
        </parking>
        <parking>
            <direccion>Cl. Tejeros,8</direccion>
            <longitud>-4.41573344</longitud>
            <latitud>36.72874081</latitud>
        </parking>
        <parking>
            <direccion>Cl. Toquero,18</direccion>
            <longitud>-4.41426963</longitud>
            <latitud>36.73372318</latitud>
        </parking>
        <parking>
            <direccion>Cl. Trinidad Grund,21</direccion>
            <longitud>-4.42263074</longitud>
            <latitud>36.71696801</latitud>
        </parking>
        <parking>
            <direccion>Pl. Ejido,2</direccion>
            <longitud>-4.41931888</longitud>
            <latitud>36.72793842</latitud>
        </parking>
        <parking>
            <direccion>Pl. Ejido,7</direccion>
            <longitud>-4.41863827</longitud>
            <latitud>36.72797497</latitud>
        </parking>
        <parking>
            <direccion>Pl. Maestro Artola,2</direccion>
            <longitud>-4.4186309</longitud>
            <latitud>36.72920247</latitud>
        </parking>
        <parking>
            <direccion>Pso. Farola,</direccion>
            <longitud>-4.41233441</longitud>
            <latitud>36.71794467</latitud>
        </parking>
        <parking>
            <direccion>Pso. de los Tilos,19</direccion>
            <longitud>-4.43442173</longitud>
            <latitud>36.71341819</latitud>
        </parking>
        <parking>
            <direccion>Pso. de los Tilos,49</direccion>
            <longitud>-4.43745263</longitud>
            <latitud>36.71308277</latitud>
        </parking>
        <parking>
            <direccion>Pso. de los Tilos,61</direccion>
            <longitud>-4.43895131</longitud>
            <latitud>36.71240224</latitud>
        </parking>
        <parking>
            <direccion>Av. del Mayorazgo,s/n</direccion>
            <longitud>-4.39691775</longitud>
            <latitud>36.73125541</latitud>
        </parking>
        <parking>
            <direccion>Av. Pío Baroja,22</direccion>
            <longitud>-4.36176538</longitud>
            <latitud>36.72026774</latitud>
        </parking>
        <parking>
            <direccion>Av. Salvador Allende,97</direccion>
            <longitud>-4.35587928</longitud>
            <latitud>36.71877941</latitud>
        </parking>
        <parking>
            <direccion>Av. Salvador Allende,278</direccion>
            <longitud>-4.35059667</longitud>
            <latitud>36.71763614</latitud>
        </parking>
        <parking>
            <direccion>Plaza Carmencita la Comadrona,1</direccion>
            <longitud>-4.34878349</longitud>
            <latitud>36.71716313</latitud>
        </parking>
        <parking>
            <direccion>Cl. Arquitecto Eduardo Esteve,1</direccion>
            <longitud>-4.36297573</longitud>
            <latitud>36.72139754</latitud>
        </parking>
        <parking>
            <direccion>Pso. Marítimo El Pedregal,106</direccion>
            <longitud>-4.367075</longitud>
            <latitud>36.71909304</latitud>
        </parking>
        <parking>
            <direccion>Cl. Escultor Marín Higuero,11</direccion>
            <longitud>-4.36443016</longitud>
            <latitud>36.7213798</latitud>
        </parking>
        <parking>
            <direccion>Cl. Idumea,1</direccion>
            <longitud>-4.35280657</longitud>
            <latitud>36.7221413</latitud>
        </parking>
        <parking>
            <direccion>Cl. Manuel del Palacio,17</direccion>
            <longitud>-4.36952636</longitud>
            <latitud>36.72540168</latitud>
        </parking>
        <parking>
            <direccion>Cl. Mar,4</direccion>
            <longitud>-4.35934603</longitud>
            <latitud>36.72077943</latitud>
        </parking>
        <parking>
            <direccion>Cl. Padre Lerchundi,1</direccion>
            <longitud>-4.35543939</longitud>
            <latitud>36.72035589</latitud>
        </parking>
        <parking>
            <direccion>Cl. Pintor Martínez Cubells,17</direccion>
            <longitud>-4.37060595</longitud>
            <latitud>36.72359151</latitud>
        </parking>
        <parking>
            <direccion>Cl. Puerto,13 y 15</direccion>
            <longitud>-4.40813273</longitud>
            <latitud>36.72015702</latitud>
        </parking>
        <parking>
            <direccion>Cl. Quitapenas,119</direccion>
            <longitud>-4.35931452</longitud>
            <latitud>36.71881543</latitud>
        </parking>
        <parking>
            <direccion>Cl. Sierra de Grazalema,27</direccion>
            <longitud>-4.40280117</longitud>
            <latitud>36.72965283</latitud>
        </parking>
        <parking>
            <direccion>Pso. Cerrado de Calderón,4</direccion>
            <longitud>-4.38282475</longitud>
            <latitud>36.72206079</latitud>
        </parking>
        <parking>
            <direccion>Pso. Limonar,18</direccion>
            <longitud>-4.39867795</longitud>
            <latitud>36.72536997</latitud>
        </parking>
        <parking>
            <direccion>Pso. Marítimo Ciudad de Melilla,15</direccion>
            <longitud>-4.41154316</longitud>
            <latitud>36.71664927</latitud>
        </parking>
        <parking>
            <direccion>Pso. Miramar,2</direccion>
            <longitud>-4.3967253</longitud>
            <latitud>36.72343564</latitud>
        </parking>
        <parking>
            <direccion>Pso. Miramar,27</direccion>
            <longitud>-4.39685538</longitud>
            <latitud>36.72633631</latitud>
        </parking>
        <parking>
            <direccion>Pso. de Sancha,20</direccion>
            <longitud>-4.40117374</longitud>
            <latitud>36.72189417</latitud>
        </parking>
        <parking>
            <direccion>Av. Jacinto Benavente,9</direccion>
            <longitud>-4.42414016</longitud>
            <latitud>36.7493652</latitud>
        </parking>
        <parking>
            <direccion>Av. Nuestra Señora de las Guías,7</direccion>
            <longitud>-4.42150086</longitud>
            <latitud>36.73891748</latitud>
        </parking>
        <parking>
            <direccion>Cl. Albéniz,28</direccion>
            <longitud>-4.42248389</longitud>
            <latitud>36.73465663</latitud>
        </parking>
        <parking>
            <direccion>Cl. Alcalde Eduardo Carvajal,6</direccion>
            <longitud>-4.42238331</longitud>
            <latitud>36.73791003</latitud>
        </parking>
        <parking>
            <direccion>Cl. Alcalde Joaquín Quiles,2</direccion>
            <longitud>-4.41926323</longitud>
            <latitud>36.74966769</latitud>
        </parking>
        <parking>
            <direccion>Cl. Alcalde Joaquín Quiles,13</direccion>
            <longitud>-4.41712819</longitud>
            <latitud>36.74930878</latitud>
        </parking>
        <parking>
            <direccion>Cl. Alcalde Nicolás Maroto,17</direccion>
            <longitud>-4.41718251</longitud>
            <latitud>36.74931899</latitud>
        </parking>
        <parking>
            <direccion>Cl. Díaz Camacho,8</direccion>
            <longitud>-4.42061615</longitud>
            <latitud>36.74668506</latitud>
        </parking>
        <parking>
            <direccion>Cl. Emilio Díaz ,60</direccion>
            <longitud>-4.42294322</longitud>
            <latitud>36.737343</latitud>
        </parking>
        <parking>
            <direccion>Cl. Jerez Perchet,23</direccion>
            <longitud>-4.41819035</longitud>
            <latitud>36.74437203</latitud>
        </parking>
        <parking>
            <direccion>Cl. Jerez Perchet,9</direccion>
            <longitud>-4.42072168</longitud>
            <latitud>36.74572553</latitud>
        </parking>
        <parking>
            <direccion>Cl. Moscatel,18</direccion>
            <longitud>-4.4162102</longitud>
            <latitud>36.74496361</latitud>
        </parking>
        <parking>
            <direccion>Cl. Obispo Bartolomé Espejo,2</direccion>
            <longitud>-4.42254424</longitud>
            <latitud>36.73502367</latitud>
        </parking>
        <parking>
            <direccion>Cl. Obispo Gabriel Trejo,16</direccion>
            <longitud>-4.42474365</longitud>
            <latitud>36.73410795</latitud>
        </parking>
        <parking>
            <direccion>Cl. Salesianos,5</direccion>
            <longitud>-4.42275412</longitud>
            <latitud>36.73496993</latitud>
        </parking>
        <parking>
            <direccion>Cl. Sánchez Albarrán,</direccion>
            <longitud>-4.41995323</longitud>
            <latitud>36.74686999</latitud>
        </parking>
        <parking>
            <direccion>Cmno. Casabermeja,70</direccion>
            <longitud>-4.42184687</longitud>
            <latitud>36.74956135</latitud>
        </parking>
        <parking>
            <direccion>Plaza Jhon F. Kennedy,3</direccion>
            <longitud>-4.42376398</longitud>
            <latitud>36.74988368</latitud>
        </parking>
        <parking>
            <direccion>Av. Carlinda,6</direccion>
            <longitud>-4.44883123</longitud>
            <latitud>36.73122102</latitud>
        </parking>
        <parking>
            <direccion>Av. Carlos Haya,188</direccion>
            <longitud>-4.45629448</longitud>
            <latitud>36.72461054</latitud>
        </parking>
        <parking>
            <direccion>Av. Miraflores de los Angeles,6</direccion>
            <longitud>-4.44237247</longitud>
            <latitud>36.73001451</latitud>
        </parking>
        <parking>
            <direccion>Cl. Albacete,8</direccion>
            <longitud>-4.44416419</longitud>
            <latitud>36.72823724</latitud>
        </parking>
        <parking>
            <direccion>Cl. Andalucía,23</direccion>
            <longitud>-4.43459272</longitud>
            <latitud>36.72370975</latitud>
        </parking>
        <parking>
            <direccion>Cl. Bailén,1</direccion>
            <longitud>-4.43197489</longitud>
            <latitud>36.7241494</latitud>
        </parking>
        <parking>
            <direccion>Cl. Blas de Lezo,13</direccion>
            <longitud>-4.43457663</longitud>
            <latitud>36.72823939</latitud>
        </parking>
        <parking>
            <direccion>Cl. Blas de Lezo,25</direccion>
            <longitud>-4.43439022</longitud>
            <latitud>36.72914657</latitud>
        </parking>
        <parking>
            <direccion>Cl. Cabas Galván,s/n</direccion>
            <longitud>-4.44053516</longitud>
            <latitud>36.72888431</latitud>
        </parking>
        <parking>
            <direccion>Cl. Calzada de la Trinidad,2 y 4</direccion>
            <longitud>-4.43143308</longitud>
            <latitud>36.72476533</latitud>
        </parking>
        <parking>
            <direccion>Cl. Diego de Vergara,48</direccion>
            <longitud>-4.43404689</longitud>
            <latitud>36.72465139</latitud>
        </parking>
        <parking>
            <direccion>Cl. Doctor Escassi,12</direccion>
            <longitud>-4.4396098</longitud>
            <latitud>36.7231051</latitud>
        </parking>
        <parking>
            <direccion>Cl. Francisco Ferrer,s/n</direccion>
            <longitud>-4.43735942</longitud>
            <latitud>36.72447349</latitud>
        </parking>
        <parking>
            <direccion>Cl. General Mola,2</direccion>
            <longitud>-4.43582453</longitud>
            <latitud>36.72228922</latitud>
        </parking>
        <parking>
            <direccion>Cl. González Anaya,47</direccion>
            <longitud>-4.43564147</longitud>
            <latitud>36.72268426</latitud>
        </parking>
        <parking>
            <direccion>Cl. Marqués de Ovieco,9</direccion>
            <longitud>-4.43753377</longitud>
            <latitud>36.72850381</latitud>
        </parking>
        <parking>
            <direccion>Cl. Martínez de la Rosa,48</direccion>
            <longitud>-4.4369182</longitud>
            <latitud>36.72628525</latitud>
        </parking>
        <parking>
            <direccion>Cl. Martínez de la Rosa,100</direccion>
            <longitud>-4.44124661</longitud>
            <latitud>36.72736659</latitud>
        </parking>
        <parking>
            <direccion>Cl. Mero,4</direccion>
            <longitud>-4.44257879</longitud>
            <latitud>36.73030094</latitud>
        </parking>
        <parking>
            <direccion>Cl. Morales Villarrubia,12</direccion>
            <longitud>-4.43909548</longitud>
            <latitud>36.72509318</latitud>
        </parking>
        <parking>
            <direccion>Cl. Natalia,1</direccion>
            <longitud>-4.43324357</longitud>
            <latitud>36.7223951</latitud>
        </parking>
        <parking>
            <direccion>Cl. Nicolás Salmerón,43</direccion>
            <longitud>-4.43745665</longitud>
            <latitud>36.7291944</latitud>
        </parking>
        <parking>
            <direccion>Cl. Pelayo,2</direccion>
            <longitud>-4.43263806</longitud>
            <latitud>36.72150235</latitud>
        </parking>
        <parking>
            <direccion>Cl. Rosa,0</direccion>
            <longitud>-4.44266349</longitud>
            <latitud>36.72293365</latitud>
        </parking>
        <parking>
            <direccion>Cl. Sondalezas,12</direccion>
            <longitud>-4.44093816</longitud>
            <latitud>36.72304652</latitud>
        </parking>
        <parking>
            <direccion>Cl. Velarde,4</direccion>
            <longitud>-4.43091273</longitud>
            <latitud>36.72619872</latitud>
        </parking>
        <parking>
            <direccion>Cmno. Castillejos,7</direccion>
            <longitud>-4.44578156</longitud>
            <latitud>36.72554142</latitud>
        </parking>
        <parking>
            <direccion>Camino de Suárez,9</direccion>
            <longitud>-4.43501182</longitud>
            <latitud>36.72694577</latitud>
        </parking>
        <parking>
            <direccion>Camino de Suárez,91</direccion>
            <longitud>-4.44245093</longitud>
            <latitud>36.728759</latitud>
        </parking>
        <parking>
            <direccion>Pje. Aranzazu,8</direccion>
            <longitud>-4.43707243</longitud>
            <latitud>36.72373448</latitud>
        </parking>
        <parking>
            <direccion>Pje. Aranzazu,4</direccion>
            <longitud>-4.43708517</longitud>
            <latitud>36.72273532</latitud>
        </parking>
        <parking>
            <direccion>Pje. Archanda,2</direccion>
            <longitud>-4.43584397</longitud>
            <latitud>36.72340232</latitud>
        </parking>
        <parking>
            <direccion>Pje. Gorbea,6</direccion>
            <longitud>-4.43831429</longitud>
            <latitud>36.72376242</latitud>
        </parking>
        <parking>
            <direccion>Cl. Deva,2</direccion>
            <longitud>-4.43155512</longitud>
            <latitud>36.73760093</latitud>
        </parking>
        <parking>
            <direccion>Cl. Deva,1</direccion>
            <longitud>-4.43232358</longitud>
            <latitud>36.73927321</latitud>
        </parking>
        <parking>
            <direccion>Cl. Doctor Galvez Moll,30</direccion>
            <longitud>-4.42947483</longitud>
            <latitud>36.73933033</latitud>
        </parking>
        <parking>
            <direccion>Cl. Ebro,4</direccion>
            <longitud>-4.43287544</longitud>
            <latitud>36.74003625</latitud>
        </parking>
        <parking>
            <direccion>Cl. Ebro ,0</direccion>
            <longitud>-4.43286896</longitud>
            <latitud>36.74004749</latitud>
        </parking>
        <parking>
            <direccion>Cl. Guadiato,</direccion>
            <longitud>-4.43287802</longitud>
            <latitud>36.74226002</latitud>
        </parking>
        <parking>
            <direccion>Cl. Poeta Agustín Ruano,8</direccion>
            <longitud>-4.43161011</longitud>
            <latitud>36.73224909</latitud>
        </parking>
        <parking>
            <direccion>Cl. Poeta Salvador Ibarra España,6</direccion>
            <longitud>-4.43193734</longitud>
            <latitud>36.7330079</latitud>
        </parking>
        <parking>
            <direccion>Cl. Poetisa Aurora Cánovas,4</direccion>
            <longitud>-4.43294719</longitud>
            <latitud>36.73243556</latitud>
        </parking>
        <parking>
            <direccion>Cl. Poetisa Juana Luna,4</direccion>
            <longitud>-4.43200573</longitud>
            <latitud>36.73231626</latitud>
        </parking>
        <parking>
            <direccion>Pl. Conde de Ferrería,2</direccion>
            <longitud>-4.42905262</longitud>
            <latitud>36.73076905</latitud>
        </parking>
        <parking>
            <direccion>Pso. Martiricos,10</direccion>
            <longitud>-4.42702219</longitud>
            <latitud>36.72882734</latitud>
        </parking>
        <parking>
            <direccion>Av. Andalucía,</direccion>
            <longitud>-4.43726492</longitud>
            <latitud>36.71691135</latitud>
        </parking>
        <parking>
            <direccion>Av. Aurora,42</direccion>
            <longitud>-4.43944149</longitud>
            <latitud>36.71545382</latitud>
        </parking>
        <parking>
            <direccion>Av. Aurora ,0</direccion>
            <longitud>-4.42682505</longitud>
            <latitud>36.71564869</latitud>
        </parking>
        <parking>
            <direccion>Av. Aurora,46</direccion>
            <longitud>-4.44030046</longitud>
            <latitud>36.71516804</latitud>
        </parking>
        <parking>
            <direccion>Av. Carlos Haya,63</direccion>
            <longitud>-4.44836184</longitud>
            <latitud>36.72233275</latitud>
        </parking>
        <parking>
            <direccion>Av. José Ortega y Gasset,70</direccion>
            <longitud>-4.45094079</longitud>
            <latitud>36.71052994</latitud>
        </parking>
        <parking>
            <direccion>Av. Jose Ortega y Gasset,149</direccion>
            <longitud>-4.4536753</longitud>
            <latitud>36.70975693</latitud>
        </parking>
        <parking>
            <direccion>Av. José Ortega y Gasset,3</direccion>
            <longitud>-4.44203854</longitud>
            <latitud>36.7121254</latitud>
        </parking>
        <parking>
            <direccion>Av. Juan XXIII,10</direccion>
            <longitud>-4.44415379</longitud>
            <latitud>36.70863346</latitud>
        </parking>
        <parking>
            <direccion>Av. Juan XXIII,28</direccion>
            <longitud>-4.44277011</longitud>
            <latitud>36.70695617</latitud>
        </parking>
        <parking>
            <direccion>Av. Juan XXIII,67</direccion>
            <longitud>-4.44688797</longitud>
            <latitud>36.71256834</latitud>
        </parking>
        <parking>
            <direccion>Av. Nehemías,20</direccion>
            <longitud>-4.45727214</longitud>
            <latitud>36.70528534</latitud>
        </parking>
        <parking>
            <direccion>Av. Nehemías,14</direccion>
            <longitud>-4.45695966</longitud>
            <latitud>36.70451657</latitud>
        </parking>
        <parking>
            <direccion>Av. Nehemías,4</direccion>
            <longitud>-4.45518337</longitud>
            <latitud>36.70482462</latitud>
        </parking>
        <parking>
            <direccion>Cl. Diego Vázquez Otero,3</direccion>
            <longitud>-4.43895668</longitud>
            <latitud>36.71766409</latitud>
        </parking>
        <parking>
            <direccion>Av. Obispo Herrera Oria,66</direccion>
            <longitud>-4.44343932</longitud>
            <latitud>36.71866063</latitud>
        </parking>
        <parking>
            <direccion>Cl. Alfambra,3</direccion>
            <longitud>-4.4415953</longitud>
            <latitud>36.71040577</latitud>
        </parking>
        <parking>
            <direccion>Cl. Alférez Herminio Bordallo,0</direccion>
            <longitud>-4.43722665</longitud>
            <latitud>36.71916373</latitud>
        </parking>
        <parking>
            <direccion>Cl. Alférez Huelin Vallejo,7</direccion>
            <longitud>-4.43601631</longitud>
            <latitud>36.71965984</latitud>
        </parking>
        <parking>
            <direccion>Cl. Alférez Simo Castillo,7</direccion>
            <longitud>-4.43564549</longitud>
            <latitud>36.71918523</latitud>
        </parking>
        <parking>
            <direccion>Cl. Almogía,10</direccion>
            <longitud>-4.4543311</longitud>
            <latitud>36.71729536</latitud>
        </parking>
        <parking>
            <direccion>Cl. Alozaina,62</direccion>
            <longitud>-4.45329711</longitud>
            <latitud>36.70895165</latitud>
        </parking>
        <parking>
            <direccion>Cl. Arenisca,9</direccion>
            <longitud>-4.45524788</longitud>
            <latitud>36.71117023</latitud>
        </parking>
        <parking>
            <direccion>Cl. Argentea,2</direccion>
            <longitud>-4.4430162</longitud>
            <latitud>36.72085253</latitud>
        </parking>
        <parking>
            <direccion>Cl. Asalto,39</direccion>
            <longitud>-4.43755858</longitud>
            <latitud>36.71436694</latitud>
        </parking>
        <parking>
            <direccion>Cl. Babel,2</direccion>
            <longitud>-4.436481</longitud>
            <latitud>36.71541566</latitud>
        </parking>
        <parking>
            <direccion>Cl. Benagalbón,5</direccion>
            <longitud>-4.45274305</longitud>
            <latitud>36.71634296</latitud>
        </parking>
        <parking>
            <direccion>Cl. Calixto y Melibea,0</direccion>
            <longitud>-4.46351767</longitud>
            <latitud>36.71102987</latitud>
        </parking>
        <parking>
            <direccion>Cl. Capitán Huelin,55</direccion>
            <longitud>-4.43801522</longitud>
            <latitud>36.72069773</latitud>
        </parking>
        <parking>
            <direccion>C/ Trombón,47</direccion>
            <longitud>-4.47490096</longitud>
            <latitud>36.74322591</latitud>
        </parking>
        <parking>
            <direccion>Cl. Castilla,0</direccion>
            <longitud>-4.45437334</longitud>
            <latitud>36.71985065</latitud>
        </parking>
        <parking>
            <direccion>Cl. Ciudad de Andújar,10</direccion>
            <longitud>-4.44703549</longitud>
            <latitud>36.71001388</latitud>
        </parking>
        <parking>
            <direccion>Cl. Conan Doyle,9</direccion>
            <longitud>-4.44975391</longitud>
            <latitud>36.71450724</latitud>
        </parking>
        <parking>
            <direccion>Cl. Corregidor Carlos Garafa,1</direccion>
            <longitud>-4.45037685</longitud>
            <latitud>36.71698253</latitud>
        </parking>
        <parking>
            <direccion>Cl. Corregidor Jerónimo Valenzuela,6</direccion>
            <longitud>-4.4524579</longitud>
            <latitud>36.71621326</latitud>
        </parking>
        <parking>
            <direccion>Cl. Corregidor Nicolas Isidro,12</direccion>
            <longitud>-4.45147589</longitud>
            <latitud>36.71534686</latitud>
        </parking>
        <parking>
            <direccion>Cl. Corregidor Pedro Zapata,s/n</direccion>
            <longitud>-4.45210218</longitud>
            <latitud>36.71198658</latitud>
        </parking>
        <parking>
            <direccion>Cl. Corregidor Ruíz de Pereda,5</direccion>
            <longitud>-4.44813788</longitud>
            <latitud>36.71230172</latitud>
        </parking>
        <parking>
            <direccion>Cl. Dan,9</direccion>
            <longitud>-4.45654488</longitud>
            <latitud>36.70398716</latitud>
        </parking>
        <parking>
            <direccion>Cl. Diego Vázquez Otero,5</direccion>
            <longitud>-4.4385805</longitud>
            <latitud>36.71767054</latitud>
        </parking>
        <parking>
            <direccion>Cl. Edom,4</direccion>
            <longitud>-4.43943119</longitud>
            <latitud>36.7153931</latitud>
        </parking>
        <parking>
            <direccion>Cl. Eguiluz,8</direccion>
            <longitud>-4.43614817</longitud>
            <latitud>36.71101383</latitud>
        </parking>
        <parking>
            <direccion>Cl. Fernández Fermina,7</direccion>
            <longitud>-4.44396496</longitud>
            <latitud>36.71312336</latitud>
        </parking>
        <parking>
            <direccion>Cl. Belá Bartók,5</direccion>
            <longitud>-4.4610621</longitud>
            <latitud>36.71925403</latitud>
        </parking>
        <parking>
            <direccion>Cl. Hamlet,9</direccion>
            <longitud>-4.46285114</longitud>
            <latitud>36.71015311</latitud>
        </parking>
        <parking>
            <direccion>Cl. Hamlet,0</direccion>
            <longitud>-4.46219587</longitud>
            <latitud>36.71010593</latitud>
        </parking>
        <parking>
            <direccion>Cl. Ingeniero de la Torre Acosta,1</direccion>
            <longitud>-4.43747878</longitud>
            <latitud>36.71865955</latitud>
        </parking>
        <parking>
            <direccion>Cl. Ingeniero de la Torre Acosta,5</direccion>
            <longitud>-4.43884403</longitud>
            <latitud>36.72003769</latitud>
        </parking>
        <parking>
            <direccion>Cl. Juan Gris,18</direccion>
            <longitud>-4.45513107</longitud>
            <latitud>36.7090339</latitud>
        </parking>
        <parking>
            <direccion>Cl. Martín de la Plaza,43</direccion>
            <longitud>-4.45749208</longitud>
            <latitud>36.72327225</latitud>
        </parking>
        <parking>
            <direccion>Cl. Mastelera,12</direccion>
            <longitud>-4.4723711</longitud>
            <latitud>36.69746784</latitud>
        </parking>
        <parking>
            <direccion>Cl. Mefistófeles,1</direccion>
            <longitud>-4.46300805</longitud>
            <latitud>36.70882264</latitud>
        </parking>
        <parking>
            <direccion>Cl. Mirra,3</direccion>
            <longitud>-4.4515188</longitud>
            <latitud>36.71154485</latitud>
        </parking>
        <parking>
            <direccion>Cl. Obsidiana,4</direccion>
            <longitud>-4.45605174</longitud>
            <latitud>36.71023643</latitud>
        </parking>
        <parking>
            <direccion>Cl. Obsidiana,1</direccion>
            <longitud>-4.45619678</longitud>
            <latitud>36.71017078</latitud>
        </parking>
        <parking>
            <direccion>Cl. Obsidiana,5</direccion>
            <longitud>-4.45712999</longitud>
            <latitud>36.70974833</latitud>
        </parking>
        <parking>
            <direccion>Cl. Coronel Osuna,7</direccion>
            <longitud>-4.44779322</longitud>
            <latitud>36.71044071</latitud>
        </parking>
        <parking>
            <direccion>Cl. Pedro Gómez Chaix,1</direccion>
            <longitud>-4.44079131</longitud>
            <latitud>36.7182403</latitud>
        </parking>
        <parking>
            <direccion>Cl. Pedro Gómez Chaix,5</direccion>
            <longitud>-4.44092005</longitud>
            <latitud>36.71707498</latitud>
        </parking>
        <parking>
            <direccion>Cl. Ruy López,17</direccion>
            <longitud>-4.45553273</longitud>
            <latitud>36.72345768</latitud>
        </parking>
        <parking>
            <direccion>Cl. Gómez Ocaña,16</direccion>
            <longitud>-4.45190035</longitud>
            <latitud>36.72174851</latitud>
        </parking>
        <parking>
            <direccion>Cl. La Unión,72</direccion>
            <longitud>-4.44347754</longitud>
            <latitud>36.70898068</latitud>
        </parking>
        <parking>
            <direccion>Cl. Flores García,1</direccion>
            <longitud>-4.43889298</longitud>
            <latitud>36.71133198</latitud>
        </parking>
        <parking>
            <direccion>Cl. Virgen de la Cabeza,21</direccion>
            <longitud>-4.44850534</longitud>
            <latitud>36.71745339</latitud>
        </parking>
        <parking>
            <direccion>Cl. Virgen de la Estrella,10</direccion>
            <longitud>-4.44314159</longitud>
            <latitud>36.71617733</latitud>
        </parking>
        <parking>
            <direccion>Cl. Virgen Inmaculada,15</direccion>
            <longitud>-4.44216259</longitud>
            <latitud>36.71728837</latitud>
        </parking>
        <parking>
            <direccion>Cl. Virgen de la Paloma,85</direccion>
            <longitud>-4.44688462</longitud>
            <latitud>36.71718947</latitud>
        </parking>
        <parking>
            <direccion>Cl. Virgen del Pilar,47</direccion>
            <longitud>-4.44565214</longitud>
            <latitud>36.71279626</latitud>
        </parking>
        <parking>
            <direccion>Cl. Virgen del Rocío,96</direccion>
            <longitud>-4.44727957</longitud>
            <latitud>36.71641061</latitud>
        </parking>
        <parking>
            <direccion>Cl. Virgen del Rosario,10</direccion>
            <longitud>-4.44450684</longitud>
            <latitud>36.71796187</latitud>
        </parking>
        <parking>
            <direccion>Cl. Zaragueta,17</direccion>
            <longitud>-4.45295244</longitud>
            <latitud>36.7210471</latitud>
        </parking>
        <parking>
            <direccion>Camino de San Rafael,19</direccion>
            <longitud>-4.44343396</longitud>
            <latitud>36.7103891</latitud>
        </parking>
        <parking>
            <direccion>Cmno. San Rafael,6</direccion>
            <longitud>-4.44166102</longitud>
            <latitud>36.71161096</latitud>
        </parking>
        <parking>
            <direccion>Carril de Santa Rosa,3</direccion>
            <longitud>-4.44564074</longitud>
            <latitud>36.72139109</latitud>
        </parking>
        <parking>
            <direccion>Av. de Bonaire,5</direccion>
            <longitud>-4.45481859</longitud>
            <latitud>36.69498002</latitud>
        </parking>
        <parking>
            <direccion>Av. Europa,41</direccion>
            <longitud>-4.45017004</longitud>
            <latitud>36.70103458</latitud>
        </parking>
        <parking>
            <direccion>Av. Europa,1</direccion>
            <longitud>-4.44109373</longitud>
            <latitud>36.7039408</latitud>
        </parking>
        <parking>
            <direccion>Av. de Europa,0</direccion>
            <longitud>-4.45496209</longitud>
            <latitud>36.69864575</latitud>
        </parking>
        <parking>
            <direccion>Av. de Los Guindos,35</direccion>
            <longitud>-4.44512643</longitud>
            <latitud>36.69013225</latitud>
        </parking>
        <parking>
            <direccion>Av. Isaac Peral,7</direccion>
            <longitud>-4.45596859</longitud>
            <latitud>36.69718604</latitud>
        </parking>
        <parking>
            <direccion>Av. de la Luz,31</direccion>
            <longitud>-4.45503384</longitud>
            <latitud>36.6971898</latitud>
        </parking>
        <parking>
            <direccion>Av. Sor Teresa Prat,54</direccion>
            <longitud>-4.44223434</longitud>
            <latitud>36.69642203</latitud>
        </parking>
        <parking>
            <direccion>Av. de Velázquez,87</direccion>
            <longitud>-4.47206116</longitud>
            <latitud>36.67905048</latitud>
        </parking>
        <parking>
            <direccion>Av. de Velázquez,198</direccion>
            <longitud>-4.44504261</longitud>
            <latitud>36.7005463</latitud>
        </parking>
        <parking>
            <direccion>Av. de Velázquez,45</direccion>
            <longitud>-4.44856167</longitud>
